{"type":"FeatureCollection","totalFeatures":415,"features":[{"type":"Feature","id":"WLANWIENATOGD.2026219","geometry":{"type":"Point","coordinates":[16.36504272331763,48.17987460018308]},"geometry_name":"SHAPE","properties":{"OBJECTID":2026219,"NAME":"Waldmuellerpark","ADRESSE":"10., Dampfgasse 47 ","WEITERE_INFORMATIONEN":"https://digitales.wien.gv.at/site/e-government/#egovwlan","ANBIETER":"https://digitales.wien.gv.at/site/e-government/#egovmultimediastationen","SE_ANNO_CAD_DATA":null}},{"type":"Feature","id":"WLANWIENATOGD.2026220","geometry":{"type":"Point","coordinates":[16.3743343166883,48.18460550699383]},"geometry_name":"SHAPE","properties":{"OBJECTID":2026220,"NAME":"Favoritenstrasse 51","ADRESSE":"10., Favoritenstrasse 51 ","WEITERE_INFORMATIONEN":"https://digitales.wien.gv.at/site/e-government/#egovwlan","ANBIETER":"https://digitales.wien.gv.at/site/e-government/#egovmultimediastationen","SE_ANNO_CAD_DATA":null}},{"type":"Feature","id":"WLANWIENATOGD.2026221","geometry":{"type":"Point","coordinates":[16.374790535255453,48.182233788918275]},"geometry_name":"SHAPE","properties":{"OBJECTID":2026221,"NAME":"Favoritenstrasse","ADRESSE":"10., Columbus Platz 7-8 ","WEITERE_INFORMATIONEN":"https://digitales.wien.gv.at/site/e-government/#egovwlan","ANBIETER":"https://digitales.wien.gv.at/site/e-government/#egovmultimediastationen","SE_ANNO_CAD_DATA":null}},{"type":"Feature","id":"WLANWIENATOGD.2026222","geometry":{"type":"Point","coordinates":[16.37702253460422,48.1767390129795]},"geometry_name":"SHAPE","properties":{"OBJECTID":2026222,"NAME":"Favoritenstrasse 128","ADRESSE":"10., Viktor Adler Platz 13 ","WEITERE_INFORMATIONEN":"https://digitales.wien.gv.at/site/e-government/#egovwlan","ANBIETER":"https://digitales.wien.gv.at/site/e-government/#egovmultimediastationen","SE_ANNO_CAD_DATA":null}},{"type":"Feature","id":"WLANWIENATOGD.2026223","geometry":{"type":"Point","coordinates":[16.38230401913806,48.2096371314146]},"geometry_name":"SHAPE","properties":{"OBJECTID":2026223,"NAME":"Stubenring 8-10","ADRESSE":"1., Stubenring 8-10 ","WEITERE_INFORMATIONEN":"https://digitales.wien.gv.at/site/e-government/#egovwlan","ANBIETER":"https://digitales.wien.gv.at/site/e-government/#egovmultimediastationen","SE_ANNO_CAD_DATA":null}},{"type":"Feature","id":"WLANWIENATOGD.2026224","geometry":{"type":"Point","coordinates":[16.381417067978667,48.2079471187182]},"geometry_name":"SHAPE","properties":{"OBJECTID":2026224,"NAME":"Stubenring 5","ADRESSE":"1., Stubenring 5 ","WEITERE_INFORMATIONEN":"https://digitales.wien.gv.at/site/e-government/#egovwlan","ANBIETER":"https://digitales.wien.gv.at/site/e-government/#egovmultimediastationen","SE_ANNO_CAD_DATA":null}},{"type":"Feature","id":"WLANWIENATOGD.2026225","geometry":{"type":"Point","coordinates":[16.379599162915202,48.20644878165411]},"geometry_name":"SHAPE","properties":{"OBJECTID":2026225,"NAME":"Parkring 4","ADRESSE":"1., Parkring 4 ","WEITERE_INFORMATIONEN":"https://digitales.wien.gv.at/site/e-government/#egovwlan","ANBIETER":"https://digitales.wien.gv.at/site/e-government/#egovmultimediastationen","SE_ANNO_CAD_DATA":null}},{"type":"Feature","id":"WLANWIENATOGD.2026226","geometry":{"type":"Point","coordinates":[16.37787413450531,48.204476950501075]},"geometry_name":"SHAPE","properties":{"OBJECTID":2026226,"NAME":"Parkring 12","ADRESSE":"1., Parkring 12 ","WEITERE_INFORMATIONEN":"https://digitales.wien.gv.at/site/e-government/#egovwlan","ANBIETER":"https://digitales.wien.gv.at/site/e-government/#egovmultimediastationen","SE_ANNO_CAD_DATA":null}},{"type":"Feature","id":"WLANWIENATOGD.2026227","geometry":{"type":"Point","coordinates":[16.376543408014186,48.2034623056021]},"geometry_name":"SHAPE","properties":{"OBJECTID":2026227,"NAME":"Parkring 20","ADRESSE":"1., Parkring 20 ","WEITERE_INFORMATIONEN":"https://digitales.wien.gv.at/site/e-government/#egovwlan","ANBIETER":"https://digitales.wien.gv.at/site/e-government/#egovmultimediastationen","SE_ANNO_CAD_DATA":null}},{"type":"Feature","id":"WLANWIENATOGD.2026228","geometry":{"type":"Point","coordinates":[16.37487977952702,48.20190186967208]},"geometry_name":"SHAPE","properties":{"OBJECTID":2026228,"NAME":"Schubertring 10-12","ADRESSE":"1., Schubertring 10-12 ","WEITERE_INFORMATIONEN":"https://digitales.wien.gv.at/site/e-government/#egovwlan","ANBIETER":"https://digitales.wien.gv.at/site/e-government/#egovmultimediastationen","SE_ANNO_CAD_DATA":null}},{"type":"Feature","id":"WLANWIENATOGD.2026229","geometry":{"type":"Point","coordinates":[16.373089067398737,48.20149644459618]},"geometry_name":"SHAPE","properties":{"OBJECTID":2026229,"NAME":"Kaerntnerring 16","ADRESSE":"1., Kaerntnerring 16 ","WEITERE_INFORMATIONEN":"https://digitales.wien.gv.at/site/e-government/#egovwlan","ANBIETER":"https://digitales.wien.gv.at/site/e-government/#egovmultimediastationen","SE_ANNO_CAD_DATA":null}},{"type":"Feature","id":"WLANWIENATOGD.2026230","geometry":{"type":"Point","coordinates":[16.371348431708075,48.20203391468804]},"geometry_name":"SHAPE","properties":{"OBJECTID":2026230,"NAME":"Kaerntnerring 5-7","ADRESSE":"1., Kaerntnerring 5-7 ","WEITERE_INFORMATIONEN":"https://digitales.wien.gv.at/site/e-government/#egovwlan","ANBIETER":"https://digitales.wien.gv.at/site/e-government/#egovmultimediastationen","SE_ANNO_CAD_DATA":null}},{"type":"Feature","id":"WLANWIENATOGD.2026231","geometry":{"type":"Point","coordinates":[16.36850132686689,48.20249129645025]},"geometry_name":"SHAPE","properties":{"OBJECTID":2026231,"NAME":"Opernring 2","ADRESSE":"1., Opernring 2 ","WEITERE_INFORMATIONEN":"https://digitales.wien.gv.at/site/e-government/#egovwlan","ANBIETER":"https://digitales.wien.gv.at/site/e-government/#egovmultimediastationen","SE_ANNO_CAD_DATA":null}},{"type":"Feature","id":"WLANWIENATOGD.2026232","geometry":{"type":"Point","coordinates":[16.366173164243666,48.20303050586538]},"geometry_name":"SHAPE","properties":{"OBJECTID":2026232,"NAME":"Opernring geg 19","ADRESSE":"1., Opernring geg 19 ","WEITERE_INFORMATIONEN":"https://digitales.wien.gv.at/site/e-government/#egovwlan","ANBIETER":"https://digitales.wien.gv.at/site/e-government/#egovmultimediastationen","SE_ANNO_CAD_DATA":null}},{"type":"Feature","id":"WLANWIENATOGD.2026233","geometry":{"type":"Point","coordinates":[16.36369687890157,48.204076914492404]},"geometry_name":"SHAPE","properties":{"OBJECTID":2026233,"NAME":"Burgring 5","ADRESSE":"1., Burgring 5 ","WEITERE_INFORMATIONEN":"https://digitales.wien.gv.at/site/e-government/#egovwlan","ANBIETER":"https://digitales.wien.gv.at/site/e-government/#egovmultimediastationen","SE_ANNO_CAD_DATA":null}},{"type":"Feature","id":"WLANWIENATOGD.2026234","geometry":{"type":"Point","coordinates":[16.362213858287834,48.20520956156489]},"geometry_name":"SHAPE","properties":{"OBJECTID":2026234,"NAME":"Heldenplatz 30","ADRESSE":"1., Heldenplatz 30 ","WEITERE_INFORMATIONEN":"https://digitales.wien.gv.at/site/e-government/#egovwlan","ANBIETER":"https://digitales.wien.gv.at/site/e-government/#egovmultimediastationen","SE_ANNO_CAD_DATA":null}},{"type":"Feature","id":"WLANWIENATOGD.2026235","geometry":{"type":"Point","coordinates":[16.36061430274258,48.20640136258372]},"geometry_name":"SHAPE","properties":{"OBJECTID":2026235,"NAME":"Burgring 7","ADRESSE":"1., Burgring 7 ","WEITERE_INFORMATIONEN":"https://digitales.wien.gv.at/site/e-government/#egovwlan","ANBIETER":"https://digitales.wien.gv.at/site/e-government/#egovmultimediastationen","SE_ANNO_CAD_DATA":null}},{"type":"Feature","id":"WLANWIENATOGD.2026236","geometry":{"type":"Point","coordinates":[16.359550845191418,48.20695675373423]},"geometry_name":"SHAPE","properties":{"OBJECTID":2026236,"NAME":"Schmerlingplatz 7","ADRESSE":"1., Schmerlingplatz 7 ","WEITERE_INFORMATIONEN":"https://digitales.wien.gv.at/site/e-government/#egovwlan","ANBIETER":"https://digitales.wien.gv.at/site/e-government/#egovmultimediastationen","SE_ANNO_CAD_DATA":null}},{"type":"Feature","id":"WLANWIENATOGD.2026237","geometry":{"type":"Point","coordinates":[16.36002993616365,48.20875743064225]},"geometry_name":"SHAPE","properties":{"OBJECTID":2026237,"NAME":"Dr Karl Renner Ring 3","ADRESSE":"1., Dr Karl Renner Ring 3 ","WEITERE_INFORMATIONEN":"https://digitales.wien.gv.at/site/e-government/#egovwlan","ANBIETER":"https://digitales.wien.gv.at/site/e-government/#egovmultimediastationen","SE_ANNO_CAD_DATA":null}},{"type":"Feature","id":"WLANWIENATOGD.2026238","geometry":{"type":"Point","coordinates":[16.360491934504378,48.21030707196636]},"geometry_name":"SHAPE","properties":{"OBJECTID":2026238,"NAME":"Universitaetsring geg 2","ADRESSE":"1., Universitaetsring geg 2 ","WEITERE_INFORMATIONEN":"https://digitales.wien.gv.at/site/e-government/#egovwlan","ANBIETER":"https://digitales.wien.gv.at/site/e-government/#egovmultimediastationen","SE_ANNO_CAD_DATA":null}},{"type":"Feature","id":"WLANWIENATOGD.2026239","geometry":{"type":"Point","coordinates":[16.36099545425123,48.21121141190497]},"geometry_name":"SHAPE","properties":{"OBJECTID":2026239,"NAME":"Universitaetsring 2-4","ADRESSE":"1., Universitaetsring 2-4 ","WEITERE_INFORMATIONEN":"https://digitales.wien.gv.at/site/e-government/#egovwlan","ANBIETER":"https://digitales.wien.gv.at/site/e-government/#egovmultimediastationen","SE_ANNO_CAD_DATA":null}},{"type":"Feature","id":"WLANWIENATOGD.2026240","geometry":{"type":"Point","coordinates":[16.361172563906536,48.212615879693566]},"geometry_name":"SHAPE","properties":{"OBJECTID":2026240,"NAME":"Universitaetsring 1","ADRESSE":"1., Universitaetsring 1 ","WEITERE_INFORMATIONEN":"https://digitales.wien.gv.at/site/e-government/#egovwlan","ANBIETER":"https://digitales.wien.gv.at/site/e-government/#egovmultimediastationen","SE_ANNO_CAD_DATA":null}},{"type":"Feature","id":"WLANWIENATOGD.2026241","geometry":{"type":"Point","coordinates":[16.361685832363545,48.213464051514045]},"geometry_name":"SHAPE","properties":{"OBJECTID":2026241,"NAME":"Universitaetsring  1A","ADRESSE":"1., Universitaetsring 1A ","WEITERE_INFORMATIONEN":"https://digitales.wien.gv.at/site/e-government/#egovwlan","ANBIETER":"https://digitales.wien.gv.at/site/e-government/#egovmultimediastationen","SE_ANNO_CAD_DATA":null}},{"type":"Feature","id":"WLANWIENATOGD.2026242","geometry":{"type":"Point","coordinates":[16.36270512947025,48.21417726087277]},"geometry_name":"SHAPE","properties":{"OBJECTID":2026242,"NAME":"Schottenring 1","ADRESSE":"1., Schottenring 1 ","WEITERE_INFORMATIONEN":"https://digitales.wien.gv.at/site/e-government/#egovwlan","ANBIETER":"https://digitales.wien.gv.at/site/e-government/#egovmultimediastationen","SE_ANNO_CAD_DATA":null}},{"type":"Feature","id":"WLANWIENATOGD.2026243","geometry":{"type":"Point","coordinates":[16.36473630749908,48.21489245311214]},"geometry_name":"SHAPE","properties":{"OBJECTID":2026243,"NAME":"Schottenring 12","ADRESSE":"1., Schottenring 12 ","WEITERE_INFORMATIONEN":"https://digitales.wien.gv.at/site/e-government/#egovwlan","ANBIETER":"https://digitales.wien.gv.at/site/e-government/#egovmultimediastationen","SE_ANNO_CAD_DATA":null}},{"type":"Feature","id":"WLANWIENATOGD.2026244","geometry":{"type":"Point","coordinates":[16.36673738563248,48.21580960485289]},"geometry_name":"SHAPE","properties":{"OBJECTID":2026244,"NAME":"Schottenring 16","ADRESSE":"1., Schottenring 16 ","WEITERE_INFORMATIONEN":"https://digitales.wien.gv.at/site/e-government/#egovwlan","ANBIETER":"https://digitales.wien.gv.at/site/e-government/#egovmultimediastationen","SE_ANNO_CAD_DATA":null}},{"type":"Feature","id":"WLANWIENATOGD.2026245","geometry":{"type":"Point","coordinates":[16.369245020542664,48.21696122758339]},"geometry_name":"SHAPE","properties":{"OBJECTID":2026245,"NAME":"Schottenring 28","ADRESSE":"1., Schottenring 28 ","WEITERE_INFORMATIONEN":"https://digitales.wien.gv.at/site/e-government/#egovwlan","ANBIETER":"https://digitales.wien.gv.at/site/e-government/#egovmultimediastationen","SE_ANNO_CAD_DATA":null}},{"type":"Feature","id":"WLANWIENATOGD.2026246","geometry":{"type":"Point","coordinates":[16.37183842523783,48.21616300575177]},"geometry_name":"SHAPE","properties":{"OBJECTID":2026246,"NAME":"Franz Josef Kai 51","ADRESSE":"1., Franz Josef Kai 51 ","WEITERE_INFORMATIONEN":"https://digitales.wien.gv.at/site/e-government/#egovwlan","ANBIETER":"https://digitales.wien.gv.at/site/e-government/#egovmultimediastationen","SE_ANNO_CAD_DATA":null}},{"type":"Feature","id":"WLANWIENATOGD.2026247","geometry":{"type":"Point","coordinates":[16.373498578042586,48.21461362728475]},"geometry_name":"SHAPE","properties":{"OBJECTID":2026247,"NAME":"Franz Josef Kai 39","ADRESSE":"1., Franz Josef Kai 39 ","WEITERE_INFORMATIONEN":"https://digitales.wien.gv.at/site/e-government/#egovwlan","ANBIETER":"https://digitales.wien.gv.at/site/e-government/#egovmultimediastationen","SE_ANNO_CAD_DATA":null}},{"type":"Feature","id":"WLANWIENATOGD.2026248","geometry":{"type":"Point","coordinates":[16.374734850553853,48.21335695269437]},"geometry_name":"SHAPE","properties":{"OBJECTID":2026248,"NAME":"Franz Josef Kai 31","ADRESSE":"1., Franz Josef Kai 31 ","WEITERE_INFORMATIONEN":"https://digitales.wien.gv.at/site/e-government/#egovwlan","ANBIETER":"https://digitales.wien.gv.at/site/e-government/#egovmultimediastationen","SE_ANNO_CAD_DATA":null}},{"type":"Feature","id":"WLANWIENATOGD.2026337","geometry":{"type":"Point","coordinates":[16.35934722756103,48.197005876244916]},"geometry_name":"SHAPE","properties":{"OBJECTID":2026337,"NAME":"Naschmarkt","ADRESSE":"6., Kettenbruecke ","WEITERE_INFORMATIONEN":"https://digitales.wien.gv.at/site/e-government/#egovwlan","ANBIETER":"https://digitales.wien.gv.at/site/e-government/#egovmultimediastationen","SE_ANNO_CAD_DATA":null}},{"type":"Feature","id":"WLANWIENATOGD.2026338","geometry":{"type":"Point","coordinates":[16.379633938368325,48.19125513268675]},"geometry_name":"SHAPE","properties":{"OBJECTID":2026338,"NAME":"Belvedere","ADRESSE":"3., Prinz Eugen Strasse 27 ","WEITERE_INFORMATIONEN":"https://digitales.wien.gv.at/site/e-government/#egovwlan","ANBIETER":"https://digitales.wien.gv.at/site/e-government/#egovmultimediastationen","SE_ANNO_CAD_DATA":null}},{"type":"Feature","id":"WLANWIENATOGD.2026339","geometry":{"type":"Point","coordinates":[16.381343880554148,48.18848996709088]},"geometry_name":"SHAPE","properties":{"OBJECTID":2026339,"NAME":"Belvedere","ADRESSE":"3., Landstrasser Guertel 1 ","WEITERE_INFORMATIONEN":"https://digitales.wien.gv.at/site/e-government/#egovwlan","ANBIETER":"https://digitales.wien.gv.at/site/e-government/#egovmultimediastationen","SE_ANNO_CAD_DATA":null}},{"type":"Feature","id":"WLANWIENATOGD.2026340","geometry":{"type":"Point","coordinates":[16.38101319834534,48.20350400839259]},"geometry_name":"SHAPE","properties":{"OBJECTID":2026340,"NAME":"Stadtpark","ADRESSE":"3., Reisnerstrasse ","WEITERE_INFORMATIONEN":"https://digitales.wien.gv.at/site/e-government/#egovwlan","ANBIETER":"https://digitales.wien.gv.at/site/e-government/#egovmultimediastationen","SE_ANNO_CAD_DATA":null}},{"type":"Feature","id":"WLANWIENATOGD.2026341","geometry":{"type":"Point","coordinates":[16.37841537561309,48.202417788334635]},"geometry_name":"SHAPE","properties":{"OBJECTID":2026341,"NAME":"Lothringerstrasse 13","ADRESSE":"3., Lothringerstrasse 13 ","WEITERE_INFORMATIONEN":"https://digitales.wien.gv.at/site/e-government/#egovwlan","ANBIETER":"https://digitales.wien.gv.at/site/e-government/#egovmultimediastationen","SE_ANNO_CAD_DATA":null}},{"type":"Feature","id":"WLANWIENATOGD.2026342","geometry":{"type":"Point","coordinates":[16.377377769464925,48.20139745345789]},"geometry_name":"SHAPE","properties":{"OBJECTID":2026342,"NAME":"Lothringerstrasse 20","ADRESSE":"3., Lothringerstrasse 20 ","WEITERE_INFORMATIONEN":"https://digitales.wien.gv.at/site/e-government/#egovwlan","ANBIETER":"https://digitales.wien.gv.at/site/e-government/#egovmultimediastationen","SE_ANNO_CAD_DATA":null}},{"type":"Feature","id":"WLANWIENATOGD.2026343","geometry":{"type":"Point","coordinates":[16.382870608659648,48.19931034078742]},"geometry_name":"SHAPE","properties":{"OBJECTID":2026343,"NAME":"Am Modenapark 7 ","ADRESSE":"3., Am Modenapark 7  ","WEITERE_INFORMATIONEN":"https://digitales.wien.gv.at/site/e-government/#egovwlan","ANBIETER":"https://digitales.wien.gv.at/site/e-government/#egovmultimediastationen","SE_ANNO_CAD_DATA":null}},{"type":"Feature","id":"WLANWIENATOGD.2026344","geometry":{"type":"Point","coordinates":[16.402263953893247,48.19740180904788]},"geometry_name":"SHAPE","properties":{"OBJECTID":2026344,"NAME":"Kardinal Nagl Platz 1","ADRESSE":"3., Kardinal Nagl Platz 1 ","WEITERE_INFORMATIONEN":"https://digitales.wien.gv.at/site/e-government/#egovwlan","ANBIETER":"https://digitales.wien.gv.at/site/e-government/#egovmultimediastationen","SE_ANNO_CAD_DATA":null}},{"type":"Feature","id":"WLANWIENATOGD.2026345","geometry":{"type":"Point","coordinates":[16.391749467366896,48.19913229721284]},"geometry_name":"SHAPE","properties":{"OBJECTID":2026345,"NAME":"Arenbergpark","ADRESSE":"3., Arenbergpark ","WEITERE_INFORMATIONEN":"https://digitales.wien.gv.at/site/e-government/#egovwlan","ANBIETER":"https://digitales.wien.gv.at/site/e-government/#egovmultimediastationen","SE_ANNO_CAD_DATA":null}},{"type":"Feature","id":"WLANWIENATOGD.2026346","geometry":{"type":"Point","coordinates":[16.403828369040585,48.18770589258804]},"geometry_name":"SHAPE","properties":{"OBJECTID":2026346,"NAME":"Robert Hochner Park","ADRESSE":"3., Robert Hochner Park ","WEITERE_INFORMATIONEN":"https://digitales.wien.gv.at/site/e-government/#egovwlan","ANBIETER":"https://digitales.wien.gv.at/site/e-government/#egovmultimediastationen","SE_ANNO_CAD_DATA":null}},{"type":"Feature","id":"WLANWIENATOGD.2026347","geometry":{"type":"Point","coordinates":[16.404874730194646,48.188497801991076]},"geometry_name":"SHAPE","properties":{"OBJECTID":2026347,"NAME":"Karl Farkas Gasse 20","ADRESSE":"3., Karl Farkas Gasse 20 ","WEITERE_INFORMATIONEN":"https://digitales.wien.gv.at/site/e-government/#egovwlan","ANBIETER":"https://digitales.wien.gv.at/site/e-government/#egovmultimediastationen","SE_ANNO_CAD_DATA":null}},{"type":"Feature","id":"WLANWIENATOGD.2026348","geometry":{"type":"Point","coordinates":[16.390479731937138,48.20271544014354]},"geometry_name":"SHAPE","properties":{"OBJECTID":2026348,"NAME":"Rochusmarkt","ADRESSE":"3., Landstrasser Hauptstrasse geg 50 ","WEITERE_INFORMATIONEN":"https://digitales.wien.gv.at/site/e-government/#egovwlan","ANBIETER":"https://digitales.wien.gv.at/site/e-government/#egovmultimediastationen","SE_ANNO_CAD_DATA":null}},{"type":"Feature","id":"WLANWIENATOGD.2026349","geometry":{"type":"Point","coordinates":[16.38527788850922,48.2057904782926]},"geometry_name":"SHAPE","properties":{"OBJECTID":2026349,"NAME":"Landstrasse Hauptstrasse 2A","ADRESSE":"3., Landstrasser Hauptstrasse 2B ","WEITERE_INFORMATIONEN":"https://digitales.wien.gv.at/site/e-government/#egovwlan","ANBIETER":"https://digitales.wien.gv.at/site/e-government/#egovmultimediastationen","SE_ANNO_CAD_DATA":null}},{"type":"Feature","id":"WLANWIENATOGD.2026350","geometry":{"type":"Point","coordinates":[16.36833554978905,48.18648803332759]},"geometry_name":"SHAPE","properties":{"OBJECTID":2026350,"NAME":"Alois Drasche Park 4","ADRESSE":"4., Alois Drasche Park 4 ","WEITERE_INFORMATIONEN":"https://digitales.wien.gv.at/site/e-government/#egovwlan","ANBIETER":"https://digitales.wien.gv.at/site/e-government/#egovmultimediastationen","SE_ANNO_CAD_DATA":null}},{"type":"Feature","id":"WLANWIENATOGD.2026351","geometry":{"type":"Point","coordinates":[16.37112446663601,48.19861104730164]},"geometry_name":"SHAPE","properties":{"OBJECTID":2026351,"NAME":"Resselpark","ADRESSE":"4., Karlsplatz 12 (2) ","WEITERE_INFORMATIONEN":"https://digitales.wien.gv.at/site/e-government/#egovwlan","ANBIETER":"https://digitales.wien.gv.at/site/e-government/#egovmultimediastationen","SE_ANNO_CAD_DATA":null}},{"type":"Feature","id":"WLANWIENATOGD.2026352","geometry":{"type":"Point","coordinates":[16.368430117083363,48.19962260341454]},"geometry_name":"SHAPE","properties":{"OBJECTID":2026352,"NAME":"Resselpark","ADRESSE":"4., Wiedner Hauptstrasse 1 ","WEITERE_INFORMATIONEN":"https://digitales.wien.gv.at/site/e-government/#egovwlan","ANBIETER":"https://digitales.wien.gv.at/site/e-government/#egovmultimediastationen","SE_ANNO_CAD_DATA":null}},{"type":"Feature","id":"WLANWIENATOGD.2026353","geometry":{"type":"Point","coordinates":[16.356644428190208,48.19669720274733]},"geometry_name":"SHAPE","properties":{"OBJECTID":2026353,"NAME":"Naschmarkt","ADRESSE":"6., Linke Wienzeile 58 ","WEITERE_INFORMATIONEN":"https://digitales.wien.gv.at/site/e-government/#egovwlan","ANBIETER":"https://digitales.wien.gv.at/site/e-government/#egovmultimediastationen","SE_ANNO_CAD_DATA":null}},{"type":"Feature","id":"WLANWIENATOGD.2026354","geometry":{"type":"Point","coordinates":[16.363399342552185,48.19867408625522]},"geometry_name":"SHAPE","properties":{"OBJECTID":2026354,"NAME":"Naschmarkt","ADRESSE":"6., Schleifmuehlbruecke ","WEITERE_INFORMATIONEN":"https://digitales.wien.gv.at/site/e-government/#egovwlan","ANBIETER":"https://digitales.wien.gv.at/site/e-government/#egovmultimediastationen","SE_ANNO_CAD_DATA":null}},{"type":"Feature","id":"WLANWIENATOGD.2026355","geometry":{"type":"Point","coordinates":[16.35411272247836,48.19781224840402]},"geometry_name":"SHAPE","properties":{"OBJECTID":2026355,"NAME":"Esterházypark","ADRESSE":"6., Fritz Gruenbaum Platz geg 2 ","WEITERE_INFORMATIONEN":"https://digitales.wien.gv.at/site/e-government/#egovwlan","ANBIETER":"https://digitales.wien.gv.at/site/e-government/#egovmultimediastationen","SE_ANNO_CAD_DATA":null}},{"type":"Feature","id":"WLANWIENATOGD.2026356","geometry":{"type":"Point","coordinates":[16.351804452885265,48.19791466847514]},"geometry_name":"SHAPE","properties":{"OBJECTID":2026356,"NAME":"Esterházypark","ADRESSE":"6., Esterhazypark ","WEITERE_INFORMATIONEN":"https://digitales.wien.gv.at/site/e-government/#egovwlan","ANBIETER":"https://digitales.wien.gv.at/site/e-government/#egovmultimediastationen","SE_ANNO_CAD_DATA":null}},{"type":"Feature","id":"WLANWIENATOGD.2026357","geometry":{"type":"Point","coordinates":[16.348715331353446,48.18946964671284]},"geometry_name":"SHAPE","properties":{"OBJECTID":2026357,"NAME":"Therese Sip Park","ADRESSE":"6., Brueckengasse 1 ","WEITERE_INFORMATIONEN":"https://digitales.wien.gv.at/site/e-government/#egovwlan","ANBIETER":"https://digitales.wien.gv.at/site/e-government/#egovmultimediastationen","SE_ANNO_CAD_DATA":null}},{"type":"Feature","id":"WLANWIENATOGD.2026358","geometry":{"type":"Point","coordinates":[16.343985356575093,48.19071637846834]},"geometry_name":"SHAPE","properties":{"OBJECTID":2026358,"NAME":"Lutherplatz","ADRESSE":"6., Lutherplatz 2 ","WEITERE_INFORMATIONEN":"https://digitales.wien.gv.at/site/e-government/#egovwlan","ANBIETER":"https://digitales.wien.gv.at/site/e-government/#egovmultimediastationen","SE_ANNO_CAD_DATA":null}},{"type":"Feature","id":"WLANWIENATOGD.2026359","geometry":{"type":"Point","coordinates":[16.346459616596704,48.19228265342682]},"geometry_name":"SHAPE","properties":{"OBJECTID":2026359,"NAME":"Hubert Marischka Park","ADRESSE":"6., Stumpergasse 12 ","WEITERE_INFORMATIONEN":"https://digitales.wien.gv.at/site/e-government/#egovwlan","ANBIETER":"https://digitales.wien.gv.at/site/e-government/#egovmultimediastationen","SE_ANNO_CAD_DATA":null}},{"type":"Feature","id":"WLANWIENATOGD.2026360","geometry":{"type":"Point","coordinates":[16.347842853891365,48.19121273828309]},"geometry_name":"SHAPE","properties":{"OBJECTID":2026360,"NAME":"Kurt Pint Platz","ADRESSE":"6., Brueckengasse geg 16 ","WEITERE_INFORMATIONEN":"https://digitales.wien.gv.at/site/e-government/#egovwlan","ANBIETER":"https://digitales.wien.gv.at/site/e-government/#egovmultimediastationen","SE_ANNO_CAD_DATA":null}},{"type":"Feature","id":"WLANWIENATOGD.2026361","geometry":{"type":"Point","coordinates":[16.342631380890182,48.20754056489078]},"geometry_name":"SHAPE","properties":{"OBJECTID":2026361,"NAME":"Ceija Stojka Platz","ADRESSE":"7., Lerchenfelder Strasse 103-109 ","WEITERE_INFORMATIONEN":"https://digitales.wien.gv.at/site/e-government/#egovwlan","ANBIETER":"https://digitales.wien.gv.at/site/e-government/#egovmultimediastationen","SE_ANNO_CAD_DATA":null}},{"type":"Feature","id":"WLANWIENATOGD.2026362","geometry":{"type":"Point","coordinates":[16.337889351756147,48.20072647763808]},"geometry_name":"SHAPE","properties":{"OBJECTID":2026362,"NAME":"Neubauguertel","ADRESSE":"7., Neubauguertel 34-36 ","WEITERE_INFORMATIONEN":"https://digitales.wien.gv.at/site/e-government/#egovwlan","ANBIETER":"https://digitales.wien.gv.at/site/e-government/#egovmultimediastationen","SE_ANNO_CAD_DATA":null}},{"type":"Feature","id":"WLANWIENATOGD.2026363","geometry":{"type":"Point","coordinates":[16.338757637619718,48.198483278859385]},"geometry_name":"SHAPE","properties":{"OBJECTID":2026363,"NAME":"Neubauguertel","ADRESSE":"7., Neubauguertel 14 ","WEITERE_INFORMATIONEN":"https://digitales.wien.gv.at/site/e-government/#egovwlan","ANBIETER":"https://digitales.wien.gv.at/site/e-government/#egovmultimediastationen","SE_ANNO_CAD_DATA":null}},{"type":"Feature","id":"WLANWIENATOGD.2026364","geometry":{"type":"Point","coordinates":[16.34635804739833,48.20441818836203]},"geometry_name":"SHAPE","properties":{"OBJECTID":2026364,"NAME":"Karl Farkas Park","ADRESSE":"7., Burggasse 72 ","WEITERE_INFORMATIONEN":"https://digitales.wien.gv.at/site/e-government/#egovwlan","ANBIETER":"https://digitales.wien.gv.at/site/e-government/#egovmultimediastationen","SE_ANNO_CAD_DATA":null}},{"type":"Feature","id":"WLANWIENATOGD.2026365","geometry":{"type":"Point","coordinates":[16.347229147337178,48.198763613998054]},"geometry_name":"SHAPE","properties":{"OBJECTID":2026365,"NAME":"Andreaspark","ADRESSE":"7., Andreasgasse 7 ","WEITERE_INFORMATIONEN":"https://digitales.wien.gv.at/site/e-government/#egovwlan","ANBIETER":"https://digitales.wien.gv.at/site/e-government/#egovmultimediastationen","SE_ANNO_CAD_DATA":null}},{"type":"Feature","id":"WLANWIENATOGD.2026395","geometry":{"type":"Point","coordinates":[16.416211618445892,48.1742393349451]},"geometry_name":"SHAPE","properties":{"OBJECTID":2026395,"NAME":"Simmeringer Hauptstrasse # Grillgasse","ADRESSE":"11., Simmeringer Hauptstrasse 96 ","WEITERE_INFORMATIONEN":"https://digitales.wien.gv.at/site/e-government/#egovwlan","ANBIETER":"https://digitales.wien.gv.at/site/e-government/#egovmultimediastationen","SE_ANNO_CAD_DATA":null}},{"type":"Feature","id":"WLANWIENATOGD.2026396","geometry":{"type":"Point","coordinates":[16.31901022531151,48.197798353679474]},"geometry_name":"SHAPE","properties":{"OBJECTID":2026396,"NAME":"Meiselmarkt # Johnstrasse","ADRESSE":"15., Johnstrasse 57 ","WEITERE_INFORMATIONEN":"https://digitales.wien.gv.at/site/e-government/#egovwlan","ANBIETER":"https://digitales.wien.gv.at/site/e-government/#egovmultimediastationen","SE_ANNO_CAD_DATA":null}},{"type":"Feature","id":"WLANWIENATOGD.2026397","geometry":{"type":"Point","coordinates":[16.318952285865098,48.1992434644183]},"geometry_name":"SHAPE","properties":{"OBJECTID":2026397,"NAME":"Meiselmarkt # Huetteldorfer Strasse ","ADRESSE":"15., Huetteldorfer Strasse 82b ","WEITERE_INFORMATIONEN":"https://digitales.wien.gv.at/site/e-government/#egovwlan","ANBIETER":"https://digitales.wien.gv.at/site/e-government/#egovmultimediastationen","SE_ANNO_CAD_DATA":null}},{"type":"Feature","id":"WLANWIENATOGD.2026398","geometry":{"type":"Point","coordinates":[16.30717944363919,48.22044656995195]},"geometry_name":"SHAPE","properties":{"OBJECTID":2026398,"NAME":"Nietzscheplatz","ADRESSE":"16., Nietzscheplatz 4 ","WEITERE_INFORMATIONEN":"https://digitales.wien.gv.at/site/e-government/#egovwlan","ANBIETER":"https://digitales.wien.gv.at/site/e-government/#egovmultimediastationen","SE_ANNO_CAD_DATA":null}},{"type":"Feature","id":"WLANWIENATOGD.2026399","geometry":{"type":"Point","coordinates":[16.30913108205222,48.20762893122033]},"geometry_name":"SHAPE","properties":{"OBJECTID":2026399,"NAME":"Gutraterplatz","ADRESSE":"16., Gutraterplatz 1 ","WEITERE_INFORMATIONEN":"https://digitales.wien.gv.at/site/e-government/#egovwlan","ANBIETER":"https://digitales.wien.gv.at/site/e-government/#egovmultimediastationen","SE_ANNO_CAD_DATA":null}},{"type":"Feature","id":"WLANWIENATOGD.2026400","geometry":{"type":"Point","coordinates":[16.382651009104674,48.211097220139415]},"geometry_name":"SHAPE","properties":{"OBJECTID":2026400,"NAME":"Julius Raab Platz","ADRESSE":"1., Julius Raab Platz ","WEITERE_INFORMATIONEN":"https://digitales.wien.gv.at/site/e-government/#egovwlan","ANBIETER":"https://digitales.wien.gv.at/site/e-government/#egovmultimediastationen","SE_ANNO_CAD_DATA":null}},{"type":"Feature","id":"WLANWIENATOGD.2026401","geometry":{"type":"Point","coordinates":[16.36479089743316,48.19791202972392]},"geometry_name":"SHAPE","properties":{"OBJECTID":2026401,"NAME":"Kuehnplatz","ADRESSE":"4., Kuehnplatz 5 ","WEITERE_INFORMATIONEN":"https://digitales.wien.gv.at/site/e-government/#egovwlan","ANBIETER":"https://digitales.wien.gv.at/site/e-government/#egovmultimediastationen","SE_ANNO_CAD_DATA":null}},{"type":"Feature","id":"WLANWIENATOGD.2026402","geometry":{"type":"Point","coordinates":[16.38072111799698,48.1778910695531]},"geometry_name":"SHAPE","properties":{"OBJECTID":2026402,"NAME":"Helmut Zilk Park","ADRESSE":"10., Gudrunstrasse 110 ","WEITERE_INFORMATIONEN":"https://digitales.wien.gv.at/site/e-government/#egovwlan","ANBIETER":"https://digitales.wien.gv.at/site/e-government/#egovmultimediastationen","SE_ANNO_CAD_DATA":null}},{"type":"Feature","id":"WLANWIENATOGD.2026403","geometry":{"type":"Point","coordinates":[16.332713078680392,48.1811816231829]},"geometry_name":"SHAPE","properties":{"OBJECTID":2026403,"NAME":"Meidlingermarkt","ADRESSE":"12., Ignazgasse # Niederhofgasse ","WEITERE_INFORMATIONEN":"https://digitales.wien.gv.at/site/e-government/#egovwlan","ANBIETER":"https://digitales.wien.gv.at/site/e-government/#egovmultimediastationen","SE_ANNO_CAD_DATA":null}},{"type":"Feature","id":"WLANWIENATOGD.2026404","geometry":{"type":"Point","coordinates":[16.314575038751173,48.22344543588577]},"geometry_name":"SHAPE","properties":{"OBJECTID":2026404,"NAME":"Park der Freiheit","ADRESSE":"17., Julius Meinl Gasse geg 15 ","WEITERE_INFORMATIONEN":"https://digitales.wien.gv.at/site/e-government/#egovwlan","ANBIETER":"https://digitales.wien.gv.at/site/e-government/#egovmultimediastationen","SE_ANNO_CAD_DATA":null}},{"type":"Feature","id":"WLANWIENATOGD.2026405","geometry":{"type":"Point","coordinates":[16.363104939770416,48.234730753998264]},"geometry_name":"SHAPE","properties":{"OBJECTID":2026405,"NAME":"Anton Kummerer Park","ADRESSE":"20., Treustrasse 94 ","WEITERE_INFORMATIONEN":"https://digitales.wien.gv.at/site/e-government/#egovwlan","ANBIETER":"https://digitales.wien.gv.at/site/e-government/#egovmultimediastationen","SE_ANNO_CAD_DATA":null}},{"type":"Feature","id":"WLANWIENATOGD.2026406","geometry":{"type":"Point","coordinates":[16.39630636176892,48.25170302316211]},"geometry_name":"SHAPE","properties":{"OBJECTID":2026406,"NAME":"Wasserpark Liegewiese","ADRESSE":"21., Wasserpark Liegewiese ","WEITERE_INFORMATIONEN":"https://digitales.wien.gv.at/site/e-government/#egovwlan","ANBIETER":"https://digitales.wien.gv.at/site/e-government/#egovmultimediastationen","SE_ANNO_CAD_DATA":null}},{"type":"Feature","id":"WLANWIENATOGD.2026407","geometry":{"type":"Point","coordinates":[16.40427775979719,48.25030103920668]},"geometry_name":"SHAPE","properties":{"OBJECTID":2026407,"NAME":"An der oberen alten Donau # Birnersteig","ADRESSE":"21., An der oberen alten Donau ","WEITERE_INFORMATIONEN":"https://digitales.wien.gv.at/site/e-government/#egovwlan","ANBIETER":"https://digitales.wien.gv.at/site/e-government/#egovmultimediastationen","SE_ANNO_CAD_DATA":null}},{"type":"Feature","id":"WLANWIENATOGD.2026408","geometry":{"type":"Point","coordinates":[16.40023732249532,48.254836360403765]},"geometry_name":"SHAPE","properties":{"OBJECTID":2026408,"NAME":"Brossmannplatz","ADRESSE":"21., Bodenstaedtgasse geg 18 ","WEITERE_INFORMATIONEN":"https://digitales.wien.gv.at/site/e-government/#egovwlan","ANBIETER":"https://digitales.wien.gv.at/site/e-government/#egovmultimediastationen","SE_ANNO_CAD_DATA":null}},{"type":"Feature","id":"WLANWIENATOGD.2026409","geometry":{"type":"Point","coordinates":[16.492529497387828,48.248731062470334]},"geometry_name":"SHAPE","properties":{"OBJECTID":2026409,"NAME":"Feuerwehrspielplatz","ADRESSE":"22., An der Neurisse ","WEITERE_INFORMATIONEN":"https://digitales.wien.gv.at/site/e-government/#egovwlan","ANBIETER":"https://digitales.wien.gv.at/site/e-government/#egovmultimediastationen","SE_ANNO_CAD_DATA":null}},{"type":"Feature","id":"WLANWIENATOGD.2026410","geometry":{"type":"Point","coordinates":[16.334144293247142,48.22087086384458]},"geometry_name":"SHAPE","properties":{"OBJECTID":2026410,"NAME":"Dornerplatz","ADRESSE":"17., Dornerplatz 13 ","WEITERE_INFORMATIONEN":"https://digitales.wien.gv.at/site/e-government/#egovwlan","ANBIETER":"https://digitales.wien.gv.at/site/e-government/#egovmultimediastationen","SE_ANNO_CAD_DATA":null}},{"type":"Feature","id":"WLANWIENATOGD.2026411","geometry":{"type":"Point","coordinates":[16.336573793891638,48.22387878103774]},"geometry_name":"SHAPE","properties":{"OBJECTID":2026411,"NAME":"Johann Nepomuk Vogl Platz","ADRESSE":"18., Teschnergasse geg 8 ","WEITERE_INFORMATIONEN":"https://digitales.wien.gv.at/site/e-government/#egovwlan","ANBIETER":"https://digitales.wien.gv.at/site/e-government/#egovmultimediastationen","SE_ANNO_CAD_DATA":null}},{"type":"Feature","id":"WLANWIENATOGD.2026412","geometry":{"type":"Point","coordinates":[16.28019256119048,48.136148977977136]},"geometry_name":"SHAPE","properties":{"OBJECTID":2026412,"NAME":"Liesingerplatz Riverside","ADRESSE":"23., Breitenfurter Strasse 370 ","WEITERE_INFORMATIONEN":"https://digitales.wien.gv.at/site/e-government/#egovwlan","ANBIETER":"https://digitales.wien.gv.at/site/e-government/#egovmultimediastationen","SE_ANNO_CAD_DATA":null}},{"type":"Feature","id":"WLANWIENATOGD.2026413","geometry":{"type":"Point","coordinates":[16.39510092238427,48.21010774056889]},"geometry_name":"SHAPE","properties":{"OBJECTID":2026413,"NAME":"Weissgerberlaende 14","ADRESSE":"3., Weissgerberlaende 14 ","WEITERE_INFORMATIONEN":"https://digitales.wien.gv.at/site/e-government/#egovwlan","ANBIETER":"https://digitales.wien.gv.at/site/e-government/#egovmultimediastationen","SE_ANNO_CAD_DATA":null}},{"type":"Feature","id":"WLANWIENATOGD.2026414","geometry":{"type":"Point","coordinates":[16.330419067119955,48.17427456742311]},"geometry_name":"SHAPE","properties":{"OBJECTID":2026414,"NAME":"Edelsinnstrasse 2 ","ADRESSE":"12., Edelsinnstrasse 2  ","WEITERE_INFORMATIONEN":"https://digitales.wien.gv.at/site/e-government/#egovwlan","ANBIETER":"https://digitales.wien.gv.at/site/e-government/#egovmultimediastationen","SE_ANNO_CAD_DATA":null}},{"type":"Feature","id":"WLANWIENATOGD.2026415","geometry":{"type":"Point","coordinates":[16.3315366224706,48.17471501811816]},"geometry_name":"SHAPE","properties":{"OBJECTID":2026415,"NAME":"Wilhelmstrasse 66 ","ADRESSE":"12., Wilhelmstrasse 66  ","WEITERE_INFORMATIONEN":"https://digitales.wien.gv.at/site/e-government/#egovwlan","ANBIETER":"https://digitales.wien.gv.at/site/e-government/#egovmultimediastationen","SE_ANNO_CAD_DATA":null}},{"type":"Feature","id":"WLANWIENATOGD.2026416","geometry":{"type":"Point","coordinates":[16.279104943457416,48.16926668632758]},"geometry_name":"SHAPE","properties":{"OBJECTID":2026416,"NAME":"Wolkersbergerstrasse 1 ","ADRESSE":"13., Wolkersbergerstrasse 1 (1) ","WEITERE_INFORMATIONEN":"https://digitales.wien.gv.at/site/e-government/#egovwlan","ANBIETER":"https://digitales.wien.gv.at/site/e-government/#egovmultimediastationen","SE_ANNO_CAD_DATA":null}},{"type":"Feature","id":"WLANWIENATOGD.2026417","geometry":{"type":"Point","coordinates":[16.271437069640296,48.1989570095767]},"geometry_name":"SHAPE","properties":{"OBJECTID":2026417,"NAME":"Leon Askin Platz","ADRESSE":"14., Linzer Strasse 319 ","WEITERE_INFORMATIONEN":"https://digitales.wien.gv.at/site/e-government/#egovwlan","ANBIETER":"https://digitales.wien.gv.at/site/e-government/#egovmultimediastationen","SE_ANNO_CAD_DATA":null}},{"type":"Feature","id":"WLANWIENATOGD.2026418","geometry":{"type":"Point","coordinates":[16.33590469121257,48.211155824261056]},"geometry_name":"SHAPE","properties":{"OBJECTID":2026418,"NAME":"Brunnengasse 55","ADRESSE":"16., Brunnengasse 55 ","WEITERE_INFORMATIONEN":"https://digitales.wien.gv.at/site/e-government/#egovwlan","ANBIETER":"https://digitales.wien.gv.at/site/e-government/#egovmultimediastationen","SE_ANNO_CAD_DATA":null}},{"type":"Feature","id":"WLANWIENATOGD.2026419","geometry":{"type":"Point","coordinates":[16.45377762129444,48.15814899088794]},"geometry_name":"SHAPE","properties":{"OBJECTID":2026419,"NAME":"Thuernlhofstrasse 30","ADRESSE":"11., Thuernlhofstrasse 30 ","WEITERE_INFORMATIONEN":"https://digitales.wien.gv.at/site/e-government/#egovwlan","ANBIETER":"https://digitales.wien.gv.at/site/e-government/#egovmultimediastationen","SE_ANNO_CAD_DATA":null}},{"type":"Feature","id":"WLANWIENATOGD.2026420","geometry":{"type":"Point","coordinates":[16.31935471215775,48.18405924622416]},"geometry_name":"SHAPE","properties":{"OBJECTID":2026420,"NAME":"Gruenbergstrasse Eingang Schloss Schoenbrunn","ADRESSE":"12., Schoenbrunner Strasse 282 ","WEITERE_INFORMATIONEN":"https://digitales.wien.gv.at/site/e-government/#egovwlan","ANBIETER":"https://digitales.wien.gv.at/site/e-government/#egovmultimediastationen","SE_ANNO_CAD_DATA":null}},{"type":"Feature","id":"WLANWIENATOGD.2026421","geometry":{"type":"Point","coordinates":[16.313259228663686,48.18787610156738]},"geometry_name":"SHAPE","properties":{"OBJECTID":2026421,"NAME":"Hadikpark","ADRESSE":"14., Hadikgasse 12 ","WEITERE_INFORMATIONEN":"https://digitales.wien.gv.at/site/e-government/#egovwlan","ANBIETER":"https://digitales.wien.gv.at/site/e-government/#egovmultimediastationen","SE_ANNO_CAD_DATA":null}},{"type":"Feature","id":"WLANWIENATOGD.2026422","geometry":{"type":"Point","coordinates":[16.314822360506913,48.18782321586064]},"geometry_name":"SHAPE","properties":{"OBJECTID":2026422,"NAME":"Linke Wienzeile Schlossbruecke ","ADRESSE":"14., Schoenbrunner Schlossbruecke (1) ","WEITERE_INFORMATIONEN":"https://digitales.wien.gv.at/site/e-government/#egovwlan","ANBIETER":"https://digitales.wien.gv.at/site/e-government/#egovmultimediastationen","SE_ANNO_CAD_DATA":null}},{"type":"Feature","id":"WLANWIENATOGD.2026423","geometry":{"type":"Point","coordinates":[16.222838692478398,48.208688526712436]},"geometry_name":"SHAPE","properties":{"OBJECTID":2026423,"NAME":"Hadersdorf Weidlingau Bad","ADRESSE":"14., Hauptstrasse 41 ","WEITERE_INFORMATIONEN":"https://digitales.wien.gv.at/site/e-government/#egovwlan","ANBIETER":"https://digitales.wien.gv.at/site/e-government/#egovmultimediastationen","SE_ANNO_CAD_DATA":null}},{"type":"Feature","id":"WLANWIENATOGD.2026424","geometry":{"type":"Point","coordinates":[16.40225249317767,48.24870938092033]},"geometry_name":"SHAPE","properties":{"OBJECTID":2026424,"NAME":"Angelibad","ADRESSE":"21., Birnersteig ","WEITERE_INFORMATIONEN":"https://digitales.wien.gv.at/site/e-government/#egovwlan","ANBIETER":"https://digitales.wien.gv.at/site/e-government/#egovmultimediastationen","SE_ANNO_CAD_DATA":null}},{"type":"Feature","id":"WLANWIENATOGD.2026425","geometry":{"type":"Point","coordinates":[16.28511075988462,48.14798291119396]},"geometry_name":"SHAPE","properties":{"OBJECTID":2026425,"NAME":"Höpflerbad\r\nHöpflerbad\r\n","ADRESSE":"23., Endresstrasse 24-26 ","WEITERE_INFORMATIONEN":"https://digitales.wien.gv.at/site/e-government/#egovwlan","ANBIETER":"https://digitales.wien.gv.at/site/e-government/#egovmultimediastationen","SE_ANNO_CAD_DATA":null}},{"type":"Feature","id":"WLANWIENATOGD.2026426","geometry":{"type":"Point","coordinates":[16.28069416017598,48.132547524592425]},"geometry_name":"SHAPE","properties":{"OBJECTID":2026426,"NAME":"Liesingerbad","ADRESSE":"23., Perchtoldsdorfer Strasse 14 ","WEITERE_INFORMATIONEN":"https://digitales.wien.gv.at/site/e-government/#egovwlan","ANBIETER":"https://digitales.wien.gv.at/site/e-government/#egovmultimediastationen","SE_ANNO_CAD_DATA":null}},{"type":"Feature","id":"WLANWIENATOGD.2026427","geometry":{"type":"Point","coordinates":[16.28339968115223,48.19875489953127]},"geometry_name":"SHAPE","properties":{"OBJECTID":2026427,"NAME":"Pachmanngasse 25","ADRESSE":"14., Pachmanngasse 25 ","WEITERE_INFORMATIONEN":"https://digitales.wien.gv.at/site/e-government/#egovwlan","ANBIETER":"https://digitales.wien.gv.at/site/e-government/#egovmultimediastationen","SE_ANNO_CAD_DATA":null}},{"type":"Feature","id":"WLANWIENATOGD.2026428","geometry":{"type":"Point","coordinates":[16.383983267993756,48.159205859354024]},"geometry_name":"SHAPE","properties":{"OBJECTID":2026428,"NAME":"Laabergbad 2","ADRESSE":"10., Ludwig von Hoehnel Gasse 2 (2) ","WEITERE_INFORMATIONEN":"https://digitales.wien.gv.at/site/e-government/#egovwlan","ANBIETER":"https://digitales.wien.gv.at/site/e-government/#egovmultimediastationen","SE_ANNO_CAD_DATA":null}},{"type":"Feature","id":"WLANWIENATOGD.2026429","geometry":{"type":"Point","coordinates":[16.38545266079047,48.15925703428334]},"geometry_name":"SHAPE","properties":{"OBJECTID":2026429,"NAME":"Laabergbad 1","ADRESSE":"10., Ludwig von Hoehnel Gasse 2 (1) ","WEITERE_INFORMATIONEN":"https://digitales.wien.gv.at/site/e-government/#egovwlan","ANBIETER":"https://digitales.wien.gv.at/site/e-government/#egovmultimediastationen","SE_ANNO_CAD_DATA":null}},{"type":"Feature","id":"WLANWIENATOGD.2026433","geometry":{"type":"Point","coordinates":[16.48351692484239,48.21789430749246]},"geometry_name":"SHAPE","properties":{"OBJECTID":2026433,"NAME":"Asperner Heldenplatz ","ADRESSE":"22., Asperner Heldenplatz geg 1  ","WEITERE_INFORMATIONEN":"https://digitales.wien.gv.at/site/e-government/#egovwlan","ANBIETER":"https://digitales.wien.gv.at/site/e-government/#egovmultimediastationen","SE_ANNO_CAD_DATA":null}},{"type":"Feature","id":"WLANWIENATOGD.2026434","geometry":{"type":"Point","coordinates":[16.31226259165148,48.215335397333305]},"geometry_name":"SHAPE","properties":{"OBJECTID":2026434,"NAME":"Mildeplatz","ADRESSE":"16., Mildeplatz geg 3 ","WEITERE_INFORMATIONEN":"https://digitales.wien.gv.at/site/e-government/#egovwlan","ANBIETER":"https://digitales.wien.gv.at/site/e-government/#egovmultimediastationen","SE_ANNO_CAD_DATA":null}},{"type":"Feature","id":"WLANWIENATOGD.2026435","geometry":{"type":"Point","coordinates":[16.357826106052077,48.205069972115325]},"geometry_name":"SHAPE","properties":{"OBJECTID":2026435,"NAME":"Volkstheater","ADRESSE":"7., Museumstrasse 2a ","WEITERE_INFORMATIONEN":"https://digitales.wien.gv.at/site/e-government/#egovwlan","ANBIETER":"https://digitales.wien.gv.at/site/e-government/#egovmultimediastationen","SE_ANNO_CAD_DATA":null}},{"type":"Feature","id":"WLANWIENATOGD.2026436","geometry":{"type":"Point","coordinates":[16.328663717907663,48.231873304679084]},"geometry_name":"SHAPE","properties":{"OBJECTID":2026436,"NAME":"Gersthofermarkt","ADRESSE":"18., Gentzgasse 170 ","WEITERE_INFORMATIONEN":"https://digitales.wien.gv.at/site/e-government/#egovwlan","ANBIETER":"https://digitales.wien.gv.at/site/e-government/#egovmultimediastationen","SE_ANNO_CAD_DATA":null}},{"type":"Feature","id":"WLANWIENATOGD.2026437","geometry":{"type":"Point","coordinates":[16.417254437854872,48.24272280331134]},"geometry_name":"SHAPE","properties":{"OBJECTID":2026437,"NAME":"Alte Donau Bad","ADRESSE":"22., Arbeiterstrandbadstrasse 91 ","WEITERE_INFORMATIONEN":"https://digitales.wien.gv.at/site/e-government/#egovwlan","ANBIETER":"https://digitales.wien.gv.at/site/e-government/#egovmultimediastationen","SE_ANNO_CAD_DATA":null}},{"type":"Feature","id":"WLANWIENATOGD.2026438","geometry":{"type":"Point","coordinates":[16.375505627094107,48.18112776173974]},"geometry_name":"SHAPE","properties":{"OBJECTID":2026438,"NAME":"Favoritenstrasse","ADRESSE":"10., Favoritenstrasse 77 ","WEITERE_INFORMATIONEN":"https://digitales.wien.gv.at/site/e-government/#egovwlan","ANBIETER":"https://digitales.wien.gv.at/site/e-government/#egovmultimediastationen","SE_ANNO_CAD_DATA":null}},{"type":"Feature","id":"WLANWIENATOGD.2026439","geometry":{"type":"Point","coordinates":[16.37653815893094,48.17800305863852]},"geometry_name":"SHAPE","properties":{"OBJECTID":2026439,"NAME":"Favoritenstrasse 80","ADRESSE":"10., Favoritenstrasse 80 ","WEITERE_INFORMATIONEN":"https://digitales.wien.gv.at/site/e-government/#egovwlan","ANBIETER":"https://digitales.wien.gv.at/site/e-government/#egovmultimediastationen","SE_ANNO_CAD_DATA":null}},{"type":"Feature","id":"WLANWIENATOGD.2026440","geometry":{"type":"Point","coordinates":[16.33699613523673,48.197752988296585]},"geometry_name":"SHAPE","properties":{"OBJECTID":2026440,"NAME":"Felberstrasse # Pelzgasse","ADRESSE":"15., Felberstrasse geg 8 ","WEITERE_INFORMATIONEN":"https://digitales.wien.gv.at/site/e-government/#egovwlan","ANBIETER":"https://digitales.wien.gv.at/site/e-government/#egovmultimediastationen","SE_ANNO_CAD_DATA":null}},{"type":"Feature","id":"WLANWIENATOGD.2026444","geometry":{"type":"Point","coordinates":[16.41624708988088,48.20435601491891]},"geometry_name":"SHAPE","properties":{"OBJECTID":2026444,"NAME":"Hauptallee","ADRESSE":"2., Hauptallee Meiereistrasse ","WEITERE_INFORMATIONEN":"https://digitales.wien.gv.at/site/e-government/#egovwlan","ANBIETER":"https://digitales.wien.gv.at/site/e-government/#egovmultimediastationen","SE_ANNO_CAD_DATA":null}},{"type":"Feature","id":"WLANWIENATOGD.2026445","geometry":{"type":"Point","coordinates":[16.400099749661255,48.21281824003257]},"geometry_name":"SHAPE","properties":{"OBJECTID":2026445,"NAME":"Hauptallee Skaterpark","ADRESSE":"2., Hauptallee Skaterpark ","WEITERE_INFORMATIONEN":"https://digitales.wien.gv.at/site/e-government/#egovwlan","ANBIETER":"https://digitales.wien.gv.at/site/e-government/#egovmultimediastationen","SE_ANNO_CAD_DATA":null}},{"type":"Feature","id":"WLANWIENATOGD.2026446","geometry":{"type":"Point","coordinates":[16.380874262670588,48.218910407301784]},"geometry_name":"SHAPE","properties":{"OBJECTID":2026446,"NAME":"Taborstrasse","ADRESSE":"2., Taborstrasse 40 ","WEITERE_INFORMATIONEN":"https://digitales.wien.gv.at/site/e-government/#egovwlan","ANBIETER":"https://digitales.wien.gv.at/site/e-government/#egovmultimediastationen","SE_ANNO_CAD_DATA":null}},{"type":"Feature","id":"WLANWIENATOGD.2026447","geometry":{"type":"Point","coordinates":[16.38431576579405,48.21463751491288]},"geometry_name":"SHAPE","properties":{"OBJECTID":2026447,"NAME":"Nestroyplatz","ADRESSE":"2., Nestroyplatz ","WEITERE_INFORMATIONEN":"https://digitales.wien.gv.at/site/e-government/#egovwlan","ANBIETER":"https://digitales.wien.gv.at/site/e-government/#egovmultimediastationen","SE_ANNO_CAD_DATA":null}},{"type":"Feature","id":"WLANWIENATOGD.2026448","geometry":{"type":"Point","coordinates":[16.401878603418556,48.22196504470767]},"geometry_name":"SHAPE","properties":{"OBJECTID":2026448,"NAME":"Vorgartenmarkt","ADRESSE":"2., Vorgartenmarkt ","WEITERE_INFORMATIONEN":"https://digitales.wien.gv.at/site/e-government/#egovwlan","ANBIETER":"https://digitales.wien.gv.at/site/e-government/#egovmultimediastationen","SE_ANNO_CAD_DATA":null}},{"type":"Feature","id":"WLANWIENATOGD.2027089","geometry":{"type":"Point","coordinates":[16.373693664528908,48.18644801530731]},"geometry_name":"SHAPE","properties":{"OBJECTID":2027089,"NAME":"Suedtiroler Platz","ADRESSE":"4., Suedtiroler Platz ","WEITERE_INFORMATIONEN":"https://digitales.wien.gv.at/site/e-government/#egovwlan","ANBIETER":"https://digitales.wien.gv.at/site/e-government/#egovmultimediastationen","SE_ANNO_CAD_DATA":null}},{"type":"Feature","id":"WLANWIENATOGD.2027090","geometry":{"type":"Point","coordinates":[16.3387174243508,48.22653795640674]},"geometry_name":"SHAPE","properties":{"OBJECTID":2027090,"NAME":"Schubertpark","ADRESSE":"18., Schubertpark ","WEITERE_INFORMATIONEN":"https://digitales.wien.gv.at/site/e-government/#egovwlan","ANBIETER":"https://digitales.wien.gv.at/site/e-government/#egovmultimediastationen","SE_ANNO_CAD_DATA":null}},{"type":"Feature","id":"WLANWIENATOGD.2027092","geometry":{"type":"Point","coordinates":[16.348653723379588,48.20797969127989]},"geometry_name":"SHAPE","properties":{"OBJECTID":2027092,"NAME":"Pfeilgasse 1","ADRESSE":"8., Pfeilgasse 1 ","WEITERE_INFORMATIONEN":"https://digitales.wien.gv.at/site/e-government/#egovwlan","ANBIETER":"https://digitales.wien.gv.at/site/e-government/#egovmultimediastationen","SE_ANNO_CAD_DATA":null}},{"type":"Feature","id":"WLANWIENATOGD.2027093","geometry":{"type":"Point","coordinates":[16.352438013920978,48.229147816264074]},"geometry_name":"SHAPE","properties":{"OBJECTID":2027093,"NAME":"Helene Deutsch Park","ADRESSE":"9., Helene Deutsch Park ","WEITERE_INFORMATIONEN":"https://digitales.wien.gv.at/site/e-government/#egovwlan","ANBIETER":"https://digitales.wien.gv.at/site/e-government/#egovmultimediastationen","SE_ANNO_CAD_DATA":null}},{"type":"Feature","id":"WLANWIENATOGD.2027094","geometry":{"type":"Point","coordinates":[16.343243111313615,48.216908642422084]},"geometry_name":"SHAPE","properties":{"OBJECTID":2027094,"NAME":"Heinz Heger Park","ADRESSE":"9., Zimmermannplatz 1 ","WEITERE_INFORMATIONEN":"https://digitales.wien.gv.at/site/e-government/#egovwlan","ANBIETER":"https://digitales.wien.gv.at/site/e-government/#egovmultimediastationen","SE_ANNO_CAD_DATA":null}},{"type":"Feature","id":"WLANWIENATOGD.2027095","geometry":{"type":"Point","coordinates":[16.50079264078489,48.227072831016386]},"geometry_name":"SHAPE","properties":{"OBJECTID":2027095,"NAME":"Yella-Hertzka-Park 1","ADRESSE":"22., Sonnenallee 48 ","WEITERE_INFORMATIONEN":"https://digitales.wien.gv.at/site/e-government/#egovwlan","ANBIETER":"https://digitales.wien.gv.at/site/e-government/#egovmultimediastationen","SE_ANNO_CAD_DATA":null}},{"type":"Feature","id":"WLANWIENATOGD.2027096","geometry":{"type":"Point","coordinates":[16.335429273548108,48.184946115411]},"geometry_name":"SHAPE","properties":{"OBJECTID":2027096,"NAME":"Bruno Pittermann Platz","ADRESSE":"12., Bruno Pittermann Platz ","WEITERE_INFORMATIONEN":"https://digitales.wien.gv.at/site/e-government/#egovwlan","ANBIETER":"https://digitales.wien.gv.at/site/e-government/#egovmultimediastationen","SE_ANNO_CAD_DATA":null}},{"type":"Feature","id":"WLANWIENATOGD.2027097","geometry":{"type":"Point","coordinates":[16.329743468647536,48.173405259978175]},"geometry_name":"SHAPE","properties":{"OBJECTID":2027097,"NAME":"Theodor Koerner Park","ADRESSE":"12., Schedifkaplatz ","WEITERE_INFORMATIONEN":"https://digitales.wien.gv.at/site/e-government/#egovwlan","ANBIETER":"https://digitales.wien.gv.at/site/e-government/#egovmultimediastationen","SE_ANNO_CAD_DATA":null}},{"type":"Feature","id":"WLANWIENATOGD.2027098","geometry":{"type":"Point","coordinates":[16.3262356577073,48.21527058457758]},"geometry_name":"SHAPE","properties":{"OBJECTID":2027098,"NAME":"Lorenz Bayer Park","ADRESSE":"17., Lorenz Bayer Platz 17 ","WEITERE_INFORMATIONEN":"https://digitales.wien.gv.at/site/e-government/#egovwlan","ANBIETER":"https://digitales.wien.gv.at/site/e-government/#egovmultimediastationen","SE_ANNO_CAD_DATA":null}},{"type":"Feature","id":"WLANWIENATOGD.2027099","geometry":{"type":"Point","coordinates":[16.37040689971213,48.23516040070457]},"geometry_name":"SHAPE","properties":{"OBJECTID":2027099,"NAME":"Hugo Gottschlich Park","ADRESSE":"20., Jaegerstrasse 60 ","WEITERE_INFORMATIONEN":"https://digitales.wien.gv.at/site/e-government/#egovwlan","ANBIETER":"https://digitales.wien.gv.at/site/e-government/#egovmultimediastationen","SE_ANNO_CAD_DATA":null}},{"type":"Feature","id":"WLANWIENATOGD.2027100","geometry":{"type":"Point","coordinates":[16.387466123747156,48.26204169089534]},"geometry_name":"SHAPE","properties":{"OBJECTID":2027100,"NAME":"Karl Seitz Platz","ADRESSE":"21., Jedleseer Strasse 73 ","WEITERE_INFORMATIONEN":"https://digitales.wien.gv.at/site/e-government/#egovwlan","ANBIETER":"https://digitales.wien.gv.at/site/e-government/#egovmultimediastationen","SE_ANNO_CAD_DATA":null}},{"type":"Feature","id":"WLANWIENATOGD.2027101","geometry":{"type":"Point","coordinates":[16.44905795544905,48.268357777581386]},"geometry_name":"SHAPE","properties":{"OBJECTID":2027101,"NAME":"Hedwig und Johann Schneider Park","ADRESSE":"21., Wassermanngasse ","WEITERE_INFORMATIONEN":"https://digitales.wien.gv.at/site/e-government/#egovwlan","ANBIETER":"https://digitales.wien.gv.at/site/e-government/#egovmultimediastationen","SE_ANNO_CAD_DATA":null}},{"type":"Feature","id":"WLANWIENATOGD.2027102","geometry":{"type":"Point","coordinates":[16.44811599968378,48.270159563154316]},"geometry_name":"SHAPE","properties":{"OBJECTID":2027102,"NAME":"Hedwig und Johann Schneider Park","ADRESSE":"21., Kuerschnerstrasse 5 ","WEITERE_INFORMATIONEN":"https://digitales.wien.gv.at/site/e-government/#egovwlan","ANBIETER":"https://digitales.wien.gv.at/site/e-government/#egovmultimediastationen","SE_ANNO_CAD_DATA":null}},{"type":"Feature","id":"WLANWIENATOGD.2027103","geometry":{"type":"Point","coordinates":[16.421049152563274,48.16989914294367]},"geometry_name":"SHAPE","properties":{"OBJECTID":2027103,"NAME":"Simmeringer Platz","ADRESSE":"11., Simmeringer Hauptstrasse 153 ","WEITERE_INFORMATIONEN":"https://digitales.wien.gv.at/site/e-government/#egovwlan","ANBIETER":"https://digitales.wien.gv.at/site/e-government/#egovmultimediastationen","SE_ANNO_CAD_DATA":null}},{"type":"Feature","id":"WLANWIENATOGD.2027105","geometry":{"type":"Point","coordinates":[16.400194874203855,48.25567607414773]},"geometry_name":"SHAPE","properties":{"OBJECTID":2027105,"NAME":"Ubahn Station Floridsdorf","ADRESSE":"21., Franklinstrasse # Rechte Nordbahngasse ","WEITERE_INFORMATIONEN":"https://digitales.wien.gv.at/site/e-government/#egovwlan","ANBIETER":"https://digitales.wien.gv.at/site/e-government/#egovmultimediastationen","SE_ANNO_CAD_DATA":null}},{"type":"Feature","id":"WLANWIENATOGD.2027106","geometry":{"type":"Point","coordinates":[16.50778346760189,48.225956271979186]},"geometry_name":"SHAPE","properties":{"OBJECTID":2027106,"NAME":"Seestadtpark","ADRESSE":"22., Janis Joplin Promenade ","WEITERE_INFORMATIONEN":"https://digitales.wien.gv.at/site/e-government/#egovwlan","ANBIETER":"https://digitales.wien.gv.at/site/e-government/#egovmultimediastationen","SE_ANNO_CAD_DATA":null}},{"type":"Feature","id":"WLANWIENATOGD.2027107","geometry":{"type":"Point","coordinates":[16.49744192210074,48.22503007578415]},"geometry_name":"SHAPE","properties":{"OBJECTID":2027107,"NAME":"Maria-Tusch-Straße","ADRESSE":"22., Maria Tusch Strasse 5 ","WEITERE_INFORMATIONEN":"https://digitales.wien.gv.at/site/e-government/#egovwlan","ANBIETER":"https://digitales.wien.gv.at/site/e-government/#egovmultimediastationen","SE_ANNO_CAD_DATA":null}},{"type":"Feature","id":"WLANWIENATOGD.2027108","geometry":{"type":"Point","coordinates":[16.349509844507875,48.22463289583888]},"geometry_name":"SHAPE","properties":{"OBJECTID":2027108,"NAME":"Volksoper","ADRESSE":"9., Waehringer Guertel 100 ","WEITERE_INFORMATIONEN":"https://digitales.wien.gv.at/site/e-government/#egovwlan","ANBIETER":"https://digitales.wien.gv.at/site/e-government/#egovmultimediastationen","SE_ANNO_CAD_DATA":null}},{"type":"Feature","id":"WLANWIENATOGD.2027109","geometry":{"type":"Point","coordinates":[16.349105868213492,48.2246432951024]},"geometry_name":"SHAPE","properties":{"OBJECTID":2027109,"NAME":"Volksoper","ADRESSE":"18., Waehringer Guertel 87 ","WEITERE_INFORMATIONEN":"https://digitales.wien.gv.at/site/e-government/#egovwlan","ANBIETER":"https://digitales.wien.gv.at/site/e-government/#egovmultimediastationen","SE_ANNO_CAD_DATA":null}},{"type":"Feature","id":"WLANWIENATOGD.2027110","geometry":{"type":"Point","coordinates":[16.375811784677193,48.18408177070361]},"geometry_name":"SHAPE","properties":{"OBJECTID":2027110,"NAME":"Sonnwendgasse HP","ADRESSE":"10., Am Hauptbahnhof 2 ","WEITERE_INFORMATIONEN":"https://digitales.wien.gv.at/site/e-government/#egovwlan","ANBIETER":"https://digitales.wien.gv.at/site/e-government/#egovmultimediastationen","SE_ANNO_CAD_DATA":null}},{"type":"Feature","id":"WLANWIENATOGD.2027111","geometry":{"type":"Point","coordinates":[16.377842746867334,48.184205961806946]},"geometry_name":"SHAPE","properties":{"OBJECTID":2027111,"NAME":"Gertrude-Froehlich-Sandner-Strasse","ADRESSE":"10., Gerhard Bronner Strasse 11 ","WEITERE_INFORMATIONEN":"https://digitales.wien.gv.at/site/e-government/#egovwlan","ANBIETER":"https://digitales.wien.gv.at/site/e-government/#egovmultimediastationen","SE_ANNO_CAD_DATA":null}},{"type":"Feature","id":"WLANWIENATOGD.2027112","geometry":{"type":"Point","coordinates":[16.36714713928352,48.20085806836342]},"geometry_name":"SHAPE","properties":{"OBJECTID":2027112,"NAME":"Esperantopark","ADRESSE":"1., Friedrichstrasse 6 ","WEITERE_INFORMATIONEN":"https://digitales.wien.gv.at/site/e-government/#egovwlan","ANBIETER":"https://digitales.wien.gv.at/site/e-government/#egovmultimediastationen","SE_ANNO_CAD_DATA":null}},{"type":"Feature","id":"WLANWIENATOGD.2027113","geometry":{"type":"Point","coordinates":[16.36709525172626,48.2003359272084]},"geometry_name":"SHAPE","properties":{"OBJECTID":2027113,"NAME":"Rosa-Mayreder-Park","ADRESSE":"1., Karlsplatz 12 (1) ","WEITERE_INFORMATIONEN":"https://digitales.wien.gv.at/site/e-government/#egovwlan","ANBIETER":"https://digitales.wien.gv.at/site/e-government/#egovmultimediastationen","SE_ANNO_CAD_DATA":null}},{"type":"Feature","id":"WLANWIENATOGD.2027114","geometry":{"type":"Point","coordinates":[16.3531256779149,48.190618074793626]},"geometry_name":"SHAPE","properties":{"OBJECTID":2027114,"NAME":"Wientalterrasse","ADRESSE":"5., Rechte Wienzeile 111 ","WEITERE_INFORMATIONEN":"https://digitales.wien.gv.at/site/e-government/#egovwlan","ANBIETER":"https://digitales.wien.gv.at/site/e-government/#egovmultimediastationen","SE_ANNO_CAD_DATA":null}},{"type":"Feature","id":"WLANWIENATOGD.2027115","geometry":{"type":"Point","coordinates":[16.318175113271433,48.2144993038815]},"geometry_name":"SHAPE","properties":{"OBJECTID":2027115,"NAME":"Familienplatz","ADRESSE":"16., Familienplatz 5 ","WEITERE_INFORMATIONEN":"https://digitales.wien.gv.at/site/e-government/#egovwlan","ANBIETER":"https://digitales.wien.gv.at/site/e-government/#egovmultimediastationen","SE_ANNO_CAD_DATA":null}},{"type":"Feature","id":"WLANWIENATOGD.2027116","geometry":{"type":"Point","coordinates":[16.3560082451003,48.21060434738427]},"geometry_name":"SHAPE","properties":{"OBJECTID":2027116,"NAME":"Friedrich-Schmidt-Platz","ADRESSE":"1., Friedrich Schmidt Platz 1 ","WEITERE_INFORMATIONEN":"https://digitales.wien.gv.at/site/e-government/#egovwlan","ANBIETER":"https://digitales.wien.gv.at/site/e-government/#egovmultimediastationen","SE_ANNO_CAD_DATA":null}},{"type":"Feature","id":"WLANWIENATOGD.2027117","geometry":{"type":"Point","coordinates":[16.342758615977047,48.25578438054514]},"geometry_name":"SHAPE","properties":{"OBJECTID":2027117,"NAME":"Grinzing","ADRESSE":"19., Cobenzlgasse 2 ","WEITERE_INFORMATIONEN":"https://digitales.wien.gv.at/site/e-government/#egovwlan","ANBIETER":"https://digitales.wien.gv.at/site/e-government/#egovmultimediastationen","SE_ANNO_CAD_DATA":null}},{"type":"Feature","id":"WLANWIENATOGD.2027118","geometry":{"type":"Point","coordinates":[16.36455603358902,48.248745176520266]},"geometry_name":"SHAPE","properties":{"OBJECTID":2027118,"NAME":"Boschstrasse 5","ADRESSE":"19., Boschstrasse 5 ","WEITERE_INFORMATIONEN":"https://digitales.wien.gv.at/site/e-government/#egovwlan","ANBIETER":"https://digitales.wien.gv.at/site/e-government/#egovmultimediastationen","SE_ANNO_CAD_DATA":null}},{"type":"Feature","id":"WLANWIENATOGD.2027119","geometry":{"type":"Point","coordinates":[16.364971537368252,48.249794191190986]},"geometry_name":"SHAPE","properties":{"OBJECTID":2027119,"NAME":"Boschstrasse 13","ADRESSE":"19., Boschstrasse 13 ","WEITERE_INFORMATIONEN":"https://digitales.wien.gv.at/site/e-government/#egovwlan","ANBIETER":"https://digitales.wien.gv.at/site/e-government/#egovmultimediastationen","SE_ANNO_CAD_DATA":null}},{"type":"Feature","id":"WLANWIENATOGD.2027120","geometry":{"type":"Point","coordinates":[16.32094014383615,48.26413522666397]},"geometry_name":"SHAPE","properties":{"OBJECTID":2027120,"NAME":"Am Cobenzl","ADRESSE":"19., Cobenzl geg 96 ","WEITERE_INFORMATIONEN":"https://digitales.wien.gv.at/site/e-government/#egovwlan","ANBIETER":"https://digitales.wien.gv.at/site/e-government/#egovmultimediastationen","SE_ANNO_CAD_DATA":null}},{"type":"Feature","id":"WLANWIENATOGD.2027121","geometry":{"type":"Point","coordinates":[16.336608293487604,48.24324424537709]},"geometry_name":"SHAPE","properties":{"OBJECTID":2027121,"NAME":"Weinberggasse geg 28","ADRESSE":"19., Weinberggasse geg 28 ","WEITERE_INFORMATIONEN":"https://digitales.wien.gv.at/site/e-government/#egovwlan","ANBIETER":"https://digitales.wien.gv.at/site/e-government/#egovmultimediastationen","SE_ANNO_CAD_DATA":null}},{"type":"Feature","id":"WLANWIENATOGD.2027151","geometry":{"type":"Point","coordinates":[16.414164114936494,48.17632053619068]},"geometry_name":"SHAPE","properties":{"OBJECTID":2027151,"NAME":"Enkplatz","ADRESSE":"11., Simmeringer Hauptstrasse geg 95 ","WEITERE_INFORMATIONEN":"https://digitales.wien.gv.at/site/e-government/#egovwlan","ANBIETER":"https://digitales.wien.gv.at/site/e-government/#egovmultimediastationen","SE_ANNO_CAD_DATA":null}},{"type":"Feature","id":"WLANWIENATOGD.2027152","geometry":{"type":"Point","coordinates":[16.466046973723024,48.15424023027947]},"geometry_name":"SHAPE","properties":{"OBJECTID":2027152,"NAME":"Svetelskystrasse 11","ADRESSE":"11., Svetelskystrasse 11 ","WEITERE_INFORMATIONEN":"https://digitales.wien.gv.at/site/e-government/#egovwlan","ANBIETER":"https://digitales.wien.gv.at/site/e-government/#egovmultimediastationen","SE_ANNO_CAD_DATA":null}},{"type":"Feature","id":"WLANWIENATOGD.2027153","geometry":{"type":"Point","coordinates":[16.410067384858344,48.173663492655294]},"geometry_name":"SHAPE","properties":{"OBJECTID":2027153,"NAME":"Herderpark","ADRESSE":"11., Zehetbauergasse 2 ","WEITERE_INFORMATIONEN":"https://digitales.wien.gv.at/site/e-government/#egovwlan","ANBIETER":"https://digitales.wien.gv.at/site/e-government/#egovmultimediastationen","SE_ANNO_CAD_DATA":null}},{"type":"Feature","id":"WLANWIENATOGD.2027154","geometry":{"type":"Point","coordinates":[16.424969194279466,48.1578634274838]},"geometry_name":"SHAPE","properties":{"OBJECTID":2027154,"NAME":"Pretschgasse 1","ADRESSE":"11., Pretschgasse 1 ","WEITERE_INFORMATIONEN":"https://digitales.wien.gv.at/site/e-government/#egovwlan","ANBIETER":"https://digitales.wien.gv.at/site/e-government/#egovmultimediastationen","SE_ANNO_CAD_DATA":null}},{"type":"Feature","id":"WLANWIENATOGD.2027155","geometry":{"type":"Point","coordinates":[16.417871572562394,48.18580694075699]},"geometry_name":"SHAPE","properties":{"OBJECTID":2027155,"NAME":"U3 Gasometer","ADRESSE":"11., Guglgasse 6 ","WEITERE_INFORMATIONEN":"https://digitales.wien.gv.at/site/e-government/#egovwlan","ANBIETER":"https://digitales.wien.gv.at/site/e-government/#egovmultimediastationen","SE_ANNO_CAD_DATA":null}},{"type":"Feature","id":"WLANWIENATOGD.2027156","geometry":{"type":"Point","coordinates":[16.326332750484617,48.164025800027204]},"geometry_name":"SHAPE","properties":{"OBJECTID":2027156,"NAME":"Miep Gies Park ","ADRESSE":"12., Thorvaldsengasse 36 ","WEITERE_INFORMATIONEN":"https://digitales.wien.gv.at/site/e-government/#egovwlan","ANBIETER":"https://digitales.wien.gv.at/site/e-government/#egovmultimediastationen","SE_ANNO_CAD_DATA":null}},{"type":"Feature","id":"WLANWIENATOGD.2027157","geometry":{"type":"Point","coordinates":[16.34474222918245,48.173864367530626]},"geometry_name":"SHAPE","properties":{"OBJECTID":2027157,"NAME":"Kundratstrasse 37-39","ADRESSE":"12., Kundratstrasse 37-39 ","WEITERE_INFORMATIONEN":"https://digitales.wien.gv.at/site/e-government/#egovwlan","ANBIETER":"https://digitales.wien.gv.at/site/e-government/#egovmultimediastationen","SE_ANNO_CAD_DATA":null}},{"type":"Feature","id":"WLANWIENATOGD.2027158","geometry":{"type":"Point","coordinates":[16.337953441302577,48.178687152923125]},"geometry_name":"SHAPE","properties":{"OBJECTID":2027158,"NAME":"Wilhelmsdorfer Park","ADRESSE":"12., Flurschuetzstrasse geg 36 ","WEITERE_INFORMATIONEN":"https://digitales.wien.gv.at/site/e-government/#egovwlan","ANBIETER":"https://digitales.wien.gv.at/site/e-government/#egovmultimediastationen","SE_ANNO_CAD_DATA":null}},{"type":"Feature","id":"WLANWIENATOGD.2027159","geometry":{"type":"Point","coordinates":[16.337613352775737,48.187289750192406]},"geometry_name":"SHAPE","properties":{"OBJECTID":2027159,"NAME":"Dunklergasse ","ADRESSE":"12., Dunklergasse 9 ","WEITERE_INFORMATIONEN":"https://digitales.wien.gv.at/site/e-government/#egovwlan","ANBIETER":"https://digitales.wien.gv.at/site/e-government/#egovmultimediastationen","SE_ANNO_CAD_DATA":null}},{"type":"Feature","id":"WLANWIENATOGD.2027160","geometry":{"type":"Point","coordinates":[16.3328242945686,48.1812943569811]},"geometry_name":"SHAPE","properties":{"OBJECTID":2027160,"NAME":"Hermann Leopoldi Park","ADRESSE":"12., Grieshofgasse # Niederhofgasse ","WEITERE_INFORMATIONEN":"https://digitales.wien.gv.at/site/e-government/#egovwlan","ANBIETER":"https://digitales.wien.gv.at/site/e-government/#egovmultimediastationen","SE_ANNO_CAD_DATA":null}},{"type":"Feature","id":"WLANWIENATOGD.2027161","geometry":{"type":"Point","coordinates":[16.329746846929147,48.18338134267781]},"geometry_name":"SHAPE","properties":{"OBJECTID":2027161,"NAME":"Meidlinger Hauptstrasse ","ADRESSE":"12., Meidlinger Hauptstrasse 1 ","WEITERE_INFORMATIONEN":"https://digitales.wien.gv.at/site/e-government/#egovwlan","ANBIETER":"https://digitales.wien.gv.at/site/e-government/#egovmultimediastationen","SE_ANNO_CAD_DATA":null}},{"type":"Feature","id":"WLANWIENATOGD.2027162","geometry":{"type":"Point","coordinates":[16.329873306503657,48.18205146680744]},"geometry_name":"SHAPE","properties":{"OBJECTID":2027162,"NAME":"Meidlinger Hauptstrasse ","ADRESSE":"12., Meidlinger Hauptstrasse 8-10 (1) ","WEITERE_INFORMATIONEN":"https://digitales.wien.gv.at/site/e-government/#egovwlan","ANBIETER":"https://digitales.wien.gv.at/site/e-government/#egovmultimediastationen","SE_ANNO_CAD_DATA":null}},{"type":"Feature","id":"WLANWIENATOGD.2027163","geometry":{"type":"Point","coordinates":[16.32976926605127,48.18169676686694]},"geometry_name":"SHAPE","properties":{"OBJECTID":2027163,"NAME":"Meidlinger Platzl","ADRESSE":"12., Meidlinger Hauptstrasse 8-10 (2) ","WEITERE_INFORMATIONEN":"https://digitales.wien.gv.at/site/e-government/#egovwlan","ANBIETER":"https://digitales.wien.gv.at/site/e-government/#egovmultimediastationen","SE_ANNO_CAD_DATA":null}},{"type":"Feature","id":"WLANWIENATOGD.2027167","geometry":{"type":"Point","coordinates":[16.330170490517887,48.17516039215003]},"geometry_name":"SHAPE","properties":{"OBJECTID":2027167,"NAME":"Meidlinger Hauptstrasse 84","ADRESSE":"12., Meidlinger Hauptstrasse 82 ","WEITERE_INFORMATIONEN":"https://digitales.wien.gv.at/site/e-government/#egovwlan","ANBIETER":"https://digitales.wien.gv.at/site/e-government/#egovmultimediastationen","SE_ANNO_CAD_DATA":null}},{"type":"Feature","id":"WLANWIENATOGD.2027168","geometry":{"type":"Point","coordinates":[16.32980001862808,48.174232895229906]},"geometry_name":"SHAPE","properties":{"OBJECTID":2027168,"NAME":"Meidlinger Hauptstrasse ","ADRESSE":"12., Philadelphiabruecke ","WEITERE_INFORMATIONEN":"https://digitales.wien.gv.at/site/e-government/#egovwlan","ANBIETER":"https://digitales.wien.gv.at/site/e-government/#egovmultimediastationen","SE_ANNO_CAD_DATA":null}},{"type":"Feature","id":"WLANWIENATOGD.2027169","geometry":{"type":"Point","coordinates":[16.304112973927786,48.18745923904027]},"geometry_name":"SHAPE","properties":{"OBJECTID":2027169,"NAME":"Kennedybruecke","ADRESSE":"13., Kennedybruecke (1) ","WEITERE_INFORMATIONEN":"https://digitales.wien.gv.at/site/e-government/#egovwlan","ANBIETER":"https://digitales.wien.gv.at/site/e-government/#egovmultimediastationen","SE_ANNO_CAD_DATA":null}},{"type":"Feature","id":"WLANWIENATOGD.2027170","geometry":{"type":"Point","coordinates":[16.30336487342183,48.18775390799809]},"geometry_name":"SHAPE","properties":{"OBJECTID":2027170,"NAME":"Kennedybruecke","ADRESSE":"13., Kennedybruecke (2) ","WEITERE_INFORMATIONEN":"https://digitales.wien.gv.at/site/e-government/#egovwlan","ANBIETER":"https://digitales.wien.gv.at/site/e-government/#egovmultimediastationen","SE_ANNO_CAD_DATA":null}},{"type":"Feature","id":"WLANWIENATOGD.2027171","geometry":{"type":"Point","coordinates":[16.301551932659642,48.185961111395514]},"geometry_name":"SHAPE","properties":{"OBJECTID":2027171,"NAME":"Am Platz","ADRESSE":"13., Am Platz 9  ","WEITERE_INFORMATIONEN":"https://digitales.wien.gv.at/site/e-government/#egovwlan","ANBIETER":"https://digitales.wien.gv.at/site/e-government/#egovmultimediastationen","SE_ANNO_CAD_DATA":null}},{"type":"Feature","id":"WLANWIENATOGD.2027172","geometry":{"type":"Point","coordinates":[16.31317356550246,48.18704584538615]},"geometry_name":"SHAPE","properties":{"OBJECTID":2027172,"NAME":"Schlossstrasse Schlossbruecke","ADRESSE":"13., Schoenbrunner Schlossbruecke (2) ","WEITERE_INFORMATIONEN":"https://digitales.wien.gv.at/site/e-government/#egovwlan","ANBIETER":"https://digitales.wien.gv.at/site/e-government/#egovmultimediastationen","SE_ANNO_CAD_DATA":null}},{"type":"Feature","id":"WLANWIENATOGD.2027173","geometry":{"type":"Point","coordinates":[16.288272509464807,48.18566424888655]},"geometry_name":"SHAPE","properties":{"OBJECTID":2027173,"NAME":"Huegelpark","ADRESSE":"13., Fichtnergasse 14 ","WEITERE_INFORMATIONEN":"https://digitales.wien.gv.at/site/e-government/#egovwlan","ANBIETER":"https://digitales.wien.gv.at/site/e-government/#egovmultimediastationen","SE_ANNO_CAD_DATA":null}},{"type":"Feature","id":"WLANWIENATOGD.2027174","geometry":{"type":"Point","coordinates":[16.201696770735037,48.229502863780816]},"geometry_name":"SHAPE","properties":{"OBJECTID":2027174,"NAME":"Hohe Wand Wiese","ADRESSE":"14., Mauerbachstrasse 174 ","WEITERE_INFORMATIONEN":"https://digitales.wien.gv.at/site/e-government/#egovwlan","ANBIETER":"https://digitales.wien.gv.at/site/e-government/#egovmultimediastationen","SE_ANNO_CAD_DATA":null}},{"type":"Feature","id":"WLANWIENATOGD.2027175","geometry":{"type":"Point","coordinates":[16.286974033500055,48.196934937524674]},"geometry_name":"SHAPE","properties":{"OBJECTID":2027175,"NAME":"Huetteldorfer Strasse","ADRESSE":"14., Huetteldorfer Strasse 188 ","WEITERE_INFORMATIONEN":"https://digitales.wien.gv.at/site/e-government/#egovwlan","ANBIETER":"https://digitales.wien.gv.at/site/e-government/#egovmultimediastationen","SE_ANNO_CAD_DATA":null}},{"type":"Feature","id":"WLANWIENATOGD.2027176","geometry":{"type":"Point","coordinates":[16.2608038001504,48.19827677791991]},"geometry_name":"SHAPE","properties":{"OBJECTID":2027176,"NAME":"Bahnhof Huetteldorf","ADRESSE":"14., Keisslergasse 18 ","WEITERE_INFORMATIONEN":"https://digitales.wien.gv.at/site/e-government/#egovwlan","ANBIETER":"https://digitales.wien.gv.at/site/e-government/#egovmultimediastationen","SE_ANNO_CAD_DATA":null}},{"type":"Feature","id":"WLANWIENATOGD.2027177","geometry":{"type":"Point","coordinates":[16.31255575840699,48.199078294014704]},"geometry_name":"SHAPE","properties":{"OBJECTID":2027177,"NAME":"Huetteldorferstrasse","ADRESSE":"14., Huetteldorfer Strasse 113 ","WEITERE_INFORMATIONEN":"https://digitales.wien.gv.at/site/e-government/#egovwlan","ANBIETER":"https://digitales.wien.gv.at/site/e-government/#egovmultimediastationen","SE_ANNO_CAD_DATA":null}},{"type":"Feature","id":"WLANWIENATOGD.2027178","geometry":{"type":"Point","coordinates":[16.334095963647098,48.20124936649294]},"geometry_name":"SHAPE","properties":{"OBJECTID":2027178,"NAME":"Maerzpark","ADRESSE":"15., Roland  Rainer Platz (1) ","WEITERE_INFORMATIONEN":"https://digitales.wien.gv.at/site/e-government/#egovwlan","ANBIETER":"https://digitales.wien.gv.at/site/e-government/#egovmultimediastationen","SE_ANNO_CAD_DATA":null}},{"type":"Feature","id":"WLANWIENATOGD.2027179","geometry":{"type":"Point","coordinates":[16.334050054863646,48.20245423365533]},"geometry_name":"SHAPE","properties":{"OBJECTID":2027179,"NAME":"Maerzpark","ADRESSE":"15., Roland  Rainer Platz (2) ","WEITERE_INFORMATIONEN":"https://digitales.wien.gv.at/site/e-government/#egovwlan","ANBIETER":"https://digitales.wien.gv.at/site/e-government/#egovmultimediastationen","SE_ANNO_CAD_DATA":null}},{"type":"Feature","id":"WLANWIENATOGD.2027209","geometry":{"type":"Point","coordinates":[16.474380021940338,48.22243084836303]},"geometry_name":"SHAPE","properties":{"OBJECTID":2027209,"NAME":"Wonkaplatz","ADRESSE":"22., Erzherzog Karl Strasse 209 ","WEITERE_INFORMATIONEN":"https://digitales.wien.gv.at/site/e-government/#egovwlan","ANBIETER":"https://digitales.wien.gv.at/site/e-government/#egovmultimediastationen","SE_ANNO_CAD_DATA":null}},{"type":"Feature","id":"WLANWIENATOGD.2027210","geometry":{"type":"Point","coordinates":[16.486438044775703,48.21756790341391]},"geometry_name":"SHAPE","properties":{"OBJECTID":2027210,"NAME":"Siegesplatz","ADRESSE":"22., Siegesplatz 9 ","WEITERE_INFORMATIONEN":"https://digitales.wien.gv.at/site/e-government/#egovwlan","ANBIETER":"https://digitales.wien.gv.at/site/e-government/#egovmultimediastationen","SE_ANNO_CAD_DATA":null}},{"type":"Feature","id":"WLANWIENATOGD.2027211","geometry":{"type":"Point","coordinates":[16.415206343367107,48.23229113126031]},"geometry_name":"SHAPE","properties":{"OBJECTID":2027211,"NAME":"Platz der Vereinten Nationen","ADRESSE":"22., Platz der Vereinten Nationen ","WEITERE_INFORMATIONEN":"https://digitales.wien.gv.at/site/e-government/#egovwlan","ANBIETER":"https://digitales.wien.gv.at/site/e-government/#egovmultimediastationen","SE_ANNO_CAD_DATA":null}},{"type":"Feature","id":"WLANWIENATOGD.2027212","geometry":{"type":"Point","coordinates":[16.464582028506648,48.21951390876508]},"geometry_name":"SHAPE","properties":{"OBJECTID":2027212,"NAME":"SMZ Ost Donauspital","ADRESSE":"22., Langobardenstrasse 122 ","WEITERE_INFORMATIONEN":"https://digitales.wien.gv.at/site/e-government/#egovwlan","ANBIETER":"https://digitales.wien.gv.at/site/e-government/#egovmultimediastationen","SE_ANNO_CAD_DATA":null}},{"type":"Feature","id":"WLANWIENATOGD.2027213","geometry":{"type":"Point","coordinates":[16.44914553337471,48.25738817940983]},"geometry_name":"SHAPE","properties":{"OBJECTID":2027213,"NAME":"U1 Rennbahnweg","ADRESSE":"22., Rennbahnweg 38A ","WEITERE_INFORMATIONEN":"https://digitales.wien.gv.at/site/e-government/#egovwlan","ANBIETER":"https://digitales.wien.gv.at/site/e-government/#egovmultimediastationen","SE_ANNO_CAD_DATA":null}},{"type":"Feature","id":"WLANWIENATOGD.2027214","geometry":{"type":"Point","coordinates":[16.31303822050403,48.13076492560872]},"geometry_name":"SHAPE","properties":{"OBJECTID":2027214,"NAME":"Wiener Flur Park","ADRESSE":"23., Wiener Flur Park ","WEITERE_INFORMATIONEN":"https://digitales.wien.gv.at/site/e-government/#egovwlan","ANBIETER":"https://digitales.wien.gv.at/site/e-government/#egovmultimediastationen","SE_ANNO_CAD_DATA":null}},{"type":"Feature","id":"WLANWIENATOGD.2027215","geometry":{"type":"Point","coordinates":[16.312252001705478,48.14784786198823]},"geometry_name":"SHAPE","properties":{"OBJECTID":2027215,"NAME":"Alma Seidler Weg","ADRESSE":"23., Alma Seidler Weg 2 ","WEITERE_INFORMATIONEN":"https://digitales.wien.gv.at/site/e-government/#egovwlan","ANBIETER":"https://digitales.wien.gv.at/site/e-government/#egovmultimediastationen","SE_ANNO_CAD_DATA":null}},{"type":"Feature","id":"WLANWIENATOGD.2027216","geometry":{"type":"Point","coordinates":[16.282506710086228,48.135270685813566]},"geometry_name":"SHAPE","properties":{"OBJECTID":2027216,"NAME":"Liesinger Platz","ADRESSE":"23., Liesinger Platz ","WEITERE_INFORMATIONEN":"https://digitales.wien.gv.at/site/e-government/#egovwlan","ANBIETER":"https://digitales.wien.gv.at/site/e-government/#egovmultimediastationen","SE_ANNO_CAD_DATA":null}},{"type":"Feature","id":"WLANWIENATOGD.2027217","geometry":{"type":"Point","coordinates":[16.26870729534966,48.15047487000168]},"geometry_name":"SHAPE","properties":{"OBJECTID":2027217,"NAME":"Maurer Hauptplatz","ADRESSE":"23., Gesslgasse geg 1 ","WEITERE_INFORMATIONEN":"https://digitales.wien.gv.at/site/e-government/#egovwlan","ANBIETER":"https://digitales.wien.gv.at/site/e-government/#egovmultimediastationen","SE_ANNO_CAD_DATA":null}},{"type":"Feature","id":"WLANWIENATOGD.2027218","geometry":{"type":"Point","coordinates":[16.315228764055927,48.14031986326976]},"geometry_name":"SHAPE","properties":{"OBJECTID":2027218,"NAME":"PaN Park","ADRESSE":"23., Carlbergergasse 72 ","WEITERE_INFORMATIONEN":"https://digitales.wien.gv.at/site/e-government/#egovwlan","ANBIETER":"https://digitales.wien.gv.at/site/e-government/#egovmultimediastationen","SE_ANNO_CAD_DATA":null}},{"type":"Feature","id":"WLANWIENATOGD.2027219","geometry":{"type":"Point","coordinates":[16.31757937400392,48.15106933262317]},"geometry_name":"SHAPE","properties":{"OBJECTID":2027219,"NAME":"Erlaa Schleife","ADRESSE":"23., Erlaa Schleife ","WEITERE_INFORMATIONEN":"https://digitales.wien.gv.at/site/e-government/#egovwlan","ANBIETER":"https://digitales.wien.gv.at/site/e-government/#egovmultimediastationen","SE_ANNO_CAD_DATA":null}},{"type":"Feature","id":"WLANWIENATOGD.2027220","geometry":{"type":"Point","coordinates":[16.296784289862305,48.14619064479563]},"geometry_name":"SHAPE","properties":{"OBJECTID":2027220,"NAME":"Atzgersdorfer Platz","ADRESSE":"23., Atzgersdorfer Platz ","WEITERE_INFORMATIONEN":"https://digitales.wien.gv.at/site/e-government/#egovwlan","ANBIETER":"https://digitales.wien.gv.at/site/e-government/#egovmultimediastationen","SE_ANNO_CAD_DATA":null}},{"type":"Feature","id":"WLANWIENATOGD.2027221","geometry":{"type":"Point","coordinates":[16.310165377330158,48.1295277187511]},"geometry_name":"SHAPE","properties":{"OBJECTID":2027221,"NAME":"Porschestrasse ","ADRESSE":"23., Basler Gasse 77 ","WEITERE_INFORMATIONEN":"https://digitales.wien.gv.at/site/e-government/#egovwlan","ANBIETER":"https://digitales.wien.gv.at/site/e-government/#egovmultimediastationen","SE_ANNO_CAD_DATA":null}},{"type":"Feature","id":"WLANWIENATOGD.2027222","geometry":{"type":"Point","coordinates":[16.347004119293892,48.1500233870079]},"geometry_name":"SHAPE","properties":{"OBJECTID":2027222,"NAME":"Inzersdorf Kirchenplatz","ADRESSE":"23., Draschestrasse 98 ","WEITERE_INFORMATIONEN":"https://digitales.wien.gv.at/site/e-government/#egovwlan","ANBIETER":"https://digitales.wien.gv.at/site/e-government/#egovmultimediastationen","SE_ANNO_CAD_DATA":null}},{"type":"Feature","id":"WLANWIENATOGD.2027223","geometry":{"type":"Point","coordinates":[16.33229328491198,48.21747375152702]},"geometry_name":"SHAPE","properties":{"OBJECTID":2027223,"NAME":"St. Bartholomaeus Platz","ADRESSE":"17., Kalvarienberggasse 26A ","WEITERE_INFORMATIONEN":"https://digitales.wien.gv.at/site/e-government/#egovwlan","ANBIETER":"https://digitales.wien.gv.at/site/e-government/#egovmultimediastationen","SE_ANNO_CAD_DATA":null}},{"type":"Feature","id":"WLANWIENATOGD.2027224","geometry":{"type":"Point","coordinates":[16.39295367889811,48.25149869571823]},"geometry_name":"SHAPE","properties":{"OBJECTID":2027224,"NAME":"Wasserpark","ADRESSE":"21., Wasserpark Fitnessplatz ","WEITERE_INFORMATIONEN":"https://digitales.wien.gv.at/site/e-government/#egovwlan","ANBIETER":"https://digitales.wien.gv.at/site/e-government/#egovmultimediastationen","SE_ANNO_CAD_DATA":null}},{"type":"Feature","id":"WLANWIENATOGD.2027225","geometry":{"type":"Point","coordinates":[16.36468584462803,48.211839225253165]},"geometry_name":"SHAPE","properties":{"OBJECTID":2027225,"NAME":"Freyung 6A","ADRESSE":"1., Freyung 6A ","WEITERE_INFORMATIONEN":"https://digitales.wien.gv.at/site/e-government/#egovwlan","ANBIETER":"https://digitales.wien.gv.at/site/e-government/#egovmultimediastationen","SE_ANNO_CAD_DATA":null}},{"type":"Feature","id":"WLANWIENATOGD.2027226","geometry":{"type":"Point","coordinates":[16.310946558909492,48.19600118653382]},"geometry_name":"SHAPE","properties":{"OBJECTID":2027226,"NAME":"Reinlpark","ADRESSE":"14., Reinlpark ","WEITERE_INFORMATIONEN":"https://digitales.wien.gv.at/site/e-government/#egovwlan","ANBIETER":"https://digitales.wien.gv.at/site/e-government/#egovmultimediastationen","SE_ANNO_CAD_DATA":null}},{"type":"Feature","id":"WLANWIENATOGD.2027227","geometry":{"type":"Point","coordinates":[16.32612878478763,48.21286837180815]},"geometry_name":"SHAPE","properties":{"OBJECTID":2027227,"NAME":"Johann-Nepomuk-Berger-Platz","ADRESSE":"16., Johann-Nepomuk-Berger-Platz ","WEITERE_INFORMATIONEN":"https://digitales.wien.gv.at/site/e-government/#egovwlan","ANBIETER":"https://digitales.wien.gv.at/site/e-government/#egovmultimediastationen","SE_ANNO_CAD_DATA":null}},{"type":"Feature","id":"WLANWIENATOGD.2027230","geometry":{"type":"Point","coordinates":[16.3945939662237,48.25260251122105]},"geometry_name":"SHAPE","properties":{"OBJECTID":2027230,"NAME":"Wasserpark","ADRESSE":"21., Wasserpark Spielplatz ","WEITERE_INFORMATIONEN":"https://digitales.wien.gv.at/site/e-government/#egovwlan","ANBIETER":"https://digitales.wien.gv.at/site/e-government/#egovmultimediastationen","SE_ANNO_CAD_DATA":null}},{"type":"Feature","id":"WLANWIENATOGD.2027231","geometry":{"type":"Point","coordinates":[16.318690023711735,48.19650964296802]},"geometry_name":"SHAPE","properties":{"OBJECTID":2027231,"NAME":"Forschneritschpark","ADRESSE":"15., Märzstraße 92 ","WEITERE_INFORMATIONEN":"https://digitales.wien.gv.at/site/e-government/#egovwlan","ANBIETER":"https://digitales.wien.gv.at/site/e-government/#egovmultimediastationen","SE_ANNO_CAD_DATA":null}},{"type":"Feature","id":"WLANWIENATOGD.2027232","geometry":{"type":"Point","coordinates":[16.418245761837706,48.23064878786819]},"geometry_name":"SHAPE","properties":{"OBJECTID":2027232,"NAME":"Goethehof 2","ADRESSE":"22., Schüttaustraße 1-39 Stiege 6 ","WEITERE_INFORMATIONEN":"https://digitales.wien.gv.at/site/e-government/#egovwlan","ANBIETER":"https://digitales.wien.gv.at/site/e-government/#egovmultimediastationen","SE_ANNO_CAD_DATA":null}},{"type":"Feature","id":"WLANWIENATOGD.2027233","geometry":{"type":"Point","coordinates":[16.32084528109032,48.197512803674314]},"geometry_name":"SHAPE","properties":{"OBJECTID":2027233,"NAME":"Wasserwelt","ADRESSE":"15., Meiselstrasse 11 ","WEITERE_INFORMATIONEN":"https://digitales.wien.gv.at/site/e-government/#egovwlan","ANBIETER":"https://digitales.wien.gv.at/site/e-government/#egovmultimediastationen","SE_ANNO_CAD_DATA":null}},{"type":"Feature","id":"WLANWIENATOGD.2027234","geometry":{"type":"Point","coordinates":[16.42111822959022,48.22901027329275]},"geometry_name":"SHAPE","properties":{"OBJECTID":2027234,"NAME":"Goethehof 3","ADRESSE":"22., Goethehof 3 Stiege 50 ","WEITERE_INFORMATIONEN":"https://digitales.wien.gv.at/site/e-government/#egovwlan","ANBIETER":"https://digitales.wien.gv.at/site/e-government/#egovmultimediastationen","SE_ANNO_CAD_DATA":null}},{"type":"Feature","id":"WLANWIENATOGD.2027235","geometry":{"type":"Point","coordinates":[16.420444048392973,48.22918919449366]},"geometry_name":"SHAPE","properties":{"OBJECTID":2027235,"NAME":"Goethehof 4","ADRESSE":"22., Goethehof 4 Stiege 43 ","WEITERE_INFORMATIONEN":"https://digitales.wien.gv.at/site/e-government/#egovwlan","ANBIETER":"https://digitales.wien.gv.at/site/e-government/#egovmultimediastationen","SE_ANNO_CAD_DATA":null}},{"type":"Feature","id":"WLANWIENATOGD.2027239","geometry":{"type":"Point","coordinates":[16.33202812699086,48.26610464590053]},"geometry_name":"SHAPE","properties":{"OBJECTID":2027239,"NAME":"Krapfenwaldbad_Master","ADRESSE":"19., Krapfenwaldbad_Master ","WEITERE_INFORMATIONEN":"https://digitales.wien.gv.at/site/e-government/#egovwlan","ANBIETER":"https://digitales.wien.gv.at/site/e-government/#egovmultimediastationen","SE_ANNO_CAD_DATA":null}},{"type":"Feature","id":"WLANWIENATOGD.2027240","geometry":{"type":"Point","coordinates":[16.384754708403054,48.24135565239224]},"geometry_name":"SHAPE","properties":{"OBJECTID":2027240,"NAME":"Maria-Restituta-Platz","ADRESSE":"20., Maria-Restituta-Platz ","WEITERE_INFORMATIONEN":"https://digitales.wien.gv.at/site/e-government/#egovwlan","ANBIETER":"https://digitales.wien.gv.at/site/e-government/#egovmultimediastationen","SE_ANNO_CAD_DATA":null}},{"type":"Feature","id":"WLANWIENATOGD.2027241","geometry":{"type":"Point","coordinates":[16.34587460526613,48.20054831802805]},"geometry_name":"SHAPE","properties":{"OBJECTID":2027241,"NAME":"Dorothea-Neff-Park","ADRESSE":"7., Bandgasse 2 ","WEITERE_INFORMATIONEN":"https://digitales.wien.gv.at/site/e-government/#egovwlan","ANBIETER":"https://digitales.wien.gv.at/site/e-government/#egovmultimediastationen","SE_ANNO_CAD_DATA":null}},{"type":"Feature","id":"WLANWIENATOGD.2027243","geometry":{"type":"Point","coordinates":[16.404052703094404,48.26815754706262]},"geometry_name":"SHAPE","properties":{"OBJECTID":2027243,"NAME":"KH Nord","ADRESSE":"21., Bruennerstrasse 68 ","WEITERE_INFORMATIONEN":"https://digitales.wien.gv.at/site/e-government/#egovwlan","ANBIETER":"https://digitales.wien.gv.at/site/e-government/#egovmultimediastationen","SE_ANNO_CAD_DATA":null}},{"type":"Feature","id":"WLANWIENATOGD.2027244","geometry":{"type":"Point","coordinates":[16.324063654626304,48.19683904001006]},"geometry_name":"SHAPE","properties":{"OBJECTID":2027244,"NAME":"Kardinal Rauscher Platz  Kirche\r\nKirche","ADRESSE":"15., Kardinal Rauscher Platz 2 ","WEITERE_INFORMATIONEN":"https://digitales.wien.gv.at/site/e-government/#egovwlan","ANBIETER":"https://digitales.wien.gv.at/site/e-government/#egovmultimediastationen","SE_ANNO_CAD_DATA":null}},{"type":"Feature","id":"WLANWIENATOGD.2027245","geometry":{"type":"Point","coordinates":[16.32259990750382,48.1973788445018]},"geometry_name":"SHAPE","properties":{"OBJECTID":2027245,"NAME":"Meiselstrasse 2","ADRESSE":"15., Meiselstrasse 2 ","WEITERE_INFORMATIONEN":"https://digitales.wien.gv.at/site/e-government/#egovwlan","ANBIETER":"https://digitales.wien.gv.at/site/e-government/#egovmultimediastationen","SE_ANNO_CAD_DATA":null}},{"type":"Feature","id":"WLANWIENATOGD.2027246","geometry":{"type":"Point","coordinates":[16.393072660317387,48.232876495167055]},"geometry_name":"SHAPE","properties":{"OBJECTID":2027246,"NAME":"Parkanlage Innstrasse","ADRESSE":"2., Engerthstrasse geg. 137 ","WEITERE_INFORMATIONEN":"https://digitales.wien.gv.at/site/e-government/#egovwlan","ANBIETER":"https://digitales.wien.gv.at/site/e-government/#egovmultimediastationen","SE_ANNO_CAD_DATA":null}},{"type":"Feature","id":"WLANWIENATOGD.2027247","geometry":{"type":"Point","coordinates":[16.420265550918277,48.169828870062005]},"geometry_name":"SHAPE","properties":{"OBJECTID":2027247,"NAME":"Simmeringer Platz 2","ADRESSE":"11., Simmeringer Platz geg 1 ","WEITERE_INFORMATIONEN":"https://digitales.wien.gv.at/site/e-government/#egovwlan","ANBIETER":"https://digitales.wien.gv.at/site/e-government/#egovmultimediastationen","SE_ANNO_CAD_DATA":null}},{"type":"Feature","id":"WLANWIENATOGD.2027248","geometry":{"type":"Point","coordinates":[16.326193008553133,48.221407270890786]},"geometry_name":"SHAPE","properties":{"OBJECTID":2027248,"NAME":"Gschwandnergasse 62","ADRESSE":"17., Gschwandnergasse 62 ","WEITERE_INFORMATIONEN":"https://digitales.wien.gv.at/site/e-government/#egovwlan","ANBIETER":"https://digitales.wien.gv.at/site/e-government/#egovmultimediastationen","SE_ANNO_CAD_DATA":null}},{"type":"Feature","id":"WLANWIENATOGD.2027249","geometry":{"type":"Point","coordinates":[16.368548115274372,48.21006279646069]},"geometry_name":"SHAPE","properties":{"OBJECTID":2027249,"NAME":"Bognergasse ","ADRESSE":"1., Bognergasse 4 ","WEITERE_INFORMATIONEN":"https://digitales.wien.gv.at/site/e-government/#egovwlan","ANBIETER":"https://digitales.wien.gv.at/site/e-government/#egovmultimediastationen","SE_ANNO_CAD_DATA":null}},{"type":"Feature","id":"WLANWIENATOGD.2027250","geometry":{"type":"Point","coordinates":[16.36895332370452,48.209767964769455]},"geometry_name":"SHAPE","properties":{"OBJECTID":2027250,"NAME":"Tuchlauben","ADRESSE":"1., Tuchlauben 2  ","WEITERE_INFORMATIONEN":"https://digitales.wien.gv.at/site/e-government/#egovwlan","ANBIETER":"https://digitales.wien.gv.at/site/e-government/#egovmultimediastationen","SE_ANNO_CAD_DATA":null}},{"type":"Feature","id":"WLANWIENATOGD.2027251","geometry":{"type":"Point","coordinates":[16.366092751130495,48.20950553232999]},"geometry_name":"SHAPE","properties":{"OBJECTID":2027251,"NAME":"Herrengasse","ADRESSE":"1., Fahnengasse 2 ","WEITERE_INFORMATIONEN":"https://digitales.wien.gv.at/site/e-government/#egovwlan","ANBIETER":"https://digitales.wien.gv.at/site/e-government/#egovmultimediastationen","SE_ANNO_CAD_DATA":null}},{"type":"Feature","id":"WLANWIENATOGD.2027252","geometry":{"type":"Point","coordinates":[16.327535993558254,48.15945318454391]},"geometry_name":"SHAPE","properties":{"OBJECTID":2027252,"NAME":"Schöpfwerk","ADRESSE":"12., Parkanlage Schöpfwerk ","WEITERE_INFORMATIONEN":"https://digitales.wien.gv.at/site/e-government/#egovwlan","ANBIETER":"https://digitales.wien.gv.at/site/e-government/#egovmultimediastationen","SE_ANNO_CAD_DATA":null}},{"type":"Feature","id":"WLANWIENATOGD.2027253","geometry":{"type":"Point","coordinates":[16.418260823904376,48.24224161904575]},"geometry_name":"SHAPE","properties":{"OBJECTID":2027253,"NAME":"Alte Donau Bad 2","ADRESSE":"22., Arbeiterstrandbadstrasse 91 ","WEITERE_INFORMATIONEN":"https://digitales.wien.gv.at/site/e-government/#egovwlan","ANBIETER":"https://digitales.wien.gv.at/site/e-government/#egovmultimediastationen","SE_ANNO_CAD_DATA":null}},{"type":"Feature","id":"WLANWIENATOGD.2027254","geometry":{"type":"Point","coordinates":[16.40956938732204,48.232086772067426]},"geometry_name":"SHAPE","properties":{"OBJECTID":2027254,"NAME":"Copa Beach 1","ADRESSE":"22., Copa Cagrana ","WEITERE_INFORMATIONEN":"https://digitales.wien.gv.at/site/e-government/#egovwlan","ANBIETER":"https://digitales.wien.gv.at/site/e-government/#egovmultimediastationen","SE_ANNO_CAD_DATA":null}},{"type":"Feature","id":"WLANWIENATOGD.2027255","geometry":{"type":"Point","coordinates":[16.40989399647906,48.231824823974904]},"geometry_name":"SHAPE","properties":{"OBJECTID":2027255,"NAME":"Copa Beach 2","ADRESSE":"22., Copa Cagrana ","WEITERE_INFORMATIONEN":"https://digitales.wien.gv.at/site/e-government/#egovwlan","ANBIETER":"https://digitales.wien.gv.at/site/e-government/#egovmultimediastationen","SE_ANNO_CAD_DATA":null}},{"type":"Feature","id":"WLANWIENATOGD.2027256","geometry":{"type":"Point","coordinates":[16.40592474947162,48.277131604085355]},"geometry_name":"SHAPE","properties":{"OBJECTID":2027256,"NAME":"Haspingerplatz","ADRESSE":"21., Haspingerplatz geg 1 ","WEITERE_INFORMATIONEN":"https://digitales.wien.gv.at/site/e-government/#egovwlan","ANBIETER":"https://digitales.wien.gv.at/site/e-government/#egovmultimediastationen","SE_ANNO_CAD_DATA":null}},{"type":"Feature","id":"WLANWIENATOGD.2027257","geometry":{"type":"Point","coordinates":[16.34941866337743,48.23330195500535]},"geometry_name":"SHAPE","properties":{"OBJECTID":2027257,"NAME":"Waehringerpark_Phillippovichgasse","ADRESSE":"18., Waehringerpark ","WEITERE_INFORMATIONEN":"https://digitales.wien.gv.at/site/e-government/#egovwlan","ANBIETER":"https://digitales.wien.gv.at/site/e-government/#egovmultimediastationen","SE_ANNO_CAD_DATA":null}},{"type":"Feature","id":"WLANWIENATOGD.2027258","geometry":{"type":"Point","coordinates":[16.34789581593264,48.23209157483619]},"geometry_name":"SHAPE","properties":{"OBJECTID":2027258,"NAME":"Waehringerpark_Skaterpark","ADRESSE":"18., Waehringerpark ","WEITERE_INFORMATIONEN":"https://digitales.wien.gv.at/site/e-government/#egovwlan","ANBIETER":"https://digitales.wien.gv.at/site/e-government/#egovmultimediastationen","SE_ANNO_CAD_DATA":null}},{"type":"Feature","id":"WLANWIENATOGD.2027259","geometry":{"type":"Point","coordinates":[16.34825187451493,48.231710825848886]},"geometry_name":"SHAPE","properties":{"OBJECTID":2027259,"NAME":"Waehringerpark_Spielplatz","ADRESSE":"18., Waehringerpark ","WEITERE_INFORMATIONEN":"https://digitales.wien.gv.at/site/e-government/#egovwlan","ANBIETER":"https://digitales.wien.gv.at/site/e-government/#egovmultimediastationen","SE_ANNO_CAD_DATA":null}},{"type":"Feature","id":"WLANWIENATOGD.2027260","geometry":{"type":"Point","coordinates":[16.39237070314761,48.22918452332642]},"geometry_name":"SHAPE","properties":{"OBJECTID":2027260,"NAME":"Nordbahnhofgelaende","ADRESSE":"2., Nordbahnhofgelaende ","WEITERE_INFORMATIONEN":"https://digitales.wien.gv.at/site/e-government/#egovwlan","ANBIETER":"https://digitales.wien.gv.at/site/e-government/#egovmultimediastationen","SE_ANNO_CAD_DATA":null}},{"type":"Feature","id":"WLANWIENATOGD.2027261","geometry":{"type":"Point","coordinates":[16.420381280204342,48.23071988086206]},"geometry_name":"SHAPE","properties":{"OBJECTID":2027261,"NAME":"Goethehof 1","ADRESSE":"22., Weissauweg geg. 1 ","WEITERE_INFORMATIONEN":"https://digitales.wien.gv.at/site/e-government/#egovwlan","ANBIETER":"https://digitales.wien.gv.at/site/e-government/#egovmultimediastationen","SE_ANNO_CAD_DATA":null}},{"type":"Feature","id":"WLANWIENATOGD.2027180","geometry":{"type":"Point","coordinates":[16.33124020836739,48.19892390925323]},"geometry_name":"SHAPE","properties":{"OBJECTID":2027180,"NAME":"Reithofferplatz","ADRESSE":"15., Reithoffeplatz 1 ","WEITERE_INFORMATIONEN":"https://digitales.wien.gv.at/site/e-government/#egovwlan","ANBIETER":"https://digitales.wien.gv.at/site/e-government/#egovmultimediastationen","SE_ANNO_CAD_DATA":null}},{"type":"Feature","id":"WLANWIENATOGD.2027181","geometry":{"type":"Point","coordinates":[16.32538989763507,48.19741021518144]},"geometry_name":"SHAPE","properties":{"OBJECTID":2027181,"NAME":"Kardinal Rauscher Platz ","ADRESSE":"15., Kardinal Rauscher Platz 2 ","WEITERE_INFORMATIONEN":"https://digitales.wien.gv.at/site/e-government/#egovwlan","ANBIETER":"https://digitales.wien.gv.at/site/e-government/#egovmultimediastationen","SE_ANNO_CAD_DATA":null}},{"type":"Feature","id":"WLANWIENATOGD.2027182","geometry":{"type":"Point","coordinates":[16.314969279382765,48.206765195022]},"geometry_name":"SHAPE","properties":{"OBJECTID":2027182,"NAME":"Rohrauerpark","ADRESSE":"15., Rohrauerpark ","WEITERE_INFORMATIONEN":"https://digitales.wien.gv.at/site/e-government/#egovwlan","ANBIETER":"https://digitales.wien.gv.at/site/e-government/#egovmultimediastationen","SE_ANNO_CAD_DATA":null}},{"type":"Feature","id":"WLANWIENATOGD.2027183","geometry":{"type":"Point","coordinates":[16.319096580870788,48.19418824284559]},"geometry_name":"SHAPE","properties":{"OBJECTID":2027183,"NAME":"Wieningerplatz","ADRESSE":"15., Wieningerplatz 7 ","WEITERE_INFORMATIONEN":"https://digitales.wien.gv.at/site/e-government/#egovwlan","ANBIETER":"https://digitales.wien.gv.at/site/e-government/#egovmultimediastationen","SE_ANNO_CAD_DATA":null}},{"type":"Feature","id":"WLANWIENATOGD.2027184","geometry":{"type":"Point","coordinates":[16.3200768920824,48.204071363900916]},"geometry_name":"SHAPE","properties":{"OBJECTID":2027184,"NAME":"Auf der Schmelz ","ADRESSE":"15., Auf der Schmelz 10 ","WEITERE_INFORMATIONEN":"https://digitales.wien.gv.at/site/e-government/#egovwlan","ANBIETER":"https://digitales.wien.gv.at/site/e-government/#egovmultimediastationen","SE_ANNO_CAD_DATA":null}},{"type":"Feature","id":"WLANWIENATOGD.2027185","geometry":{"type":"Point","coordinates":[16.32577535464372,48.213087550071876]},"geometry_name":"SHAPE","properties":{"OBJECTID":2027185,"NAME":"Johann Nepomuk Berger Platz","ADRESSE":"16., Johann Nepomuk Berger Platz 12 ","WEITERE_INFORMATIONEN":"https://digitales.wien.gv.at/site/e-government/#egovwlan","ANBIETER":"https://digitales.wien.gv.at/site/e-government/#egovmultimediastationen","SE_ANNO_CAD_DATA":null}},{"type":"Feature","id":"WLANWIENATOGD.2027186","geometry":{"type":"Point","coordinates":[16.338592493344102,48.2117794056468]},"geometry_name":"SHAPE","properties":{"OBJECTID":2027186,"NAME":"Yppenheim","ADRESSE":"16., Lerchenfelder Guertel 57 ","WEITERE_INFORMATIONEN":"https://digitales.wien.gv.at/site/e-government/#egovwlan","ANBIETER":"https://digitales.wien.gv.at/site/e-government/#egovmultimediastationen","SE_ANNO_CAD_DATA":null}},{"type":"Feature","id":"WLANWIENATOGD.2027187","geometry":{"type":"Point","coordinates":[16.308964965037237,48.21372845111302]},"geometry_name":"SHAPE","properties":{"OBJECTID":2027187,"NAME":"Ottakringer Strasse 200","ADRESSE":"16., Ottakringer Strasse 200 ","WEITERE_INFORMATIONEN":"https://digitales.wien.gv.at/site/e-government/#egovwlan","ANBIETER":"https://digitales.wien.gv.at/site/e-government/#egovmultimediastationen","SE_ANNO_CAD_DATA":null}},{"type":"Feature","id":"WLANWIENATOGD.2027188","geometry":{"type":"Point","coordinates":[16.332997057999407,48.208997490606805]},"geometry_name":"SHAPE","properties":{"OBJECTID":2027188,"NAME":"Hofferpark","ADRESSE":"16., Hofferplatz 6 ","WEITERE_INFORMATIONEN":"https://digitales.wien.gv.at/site/e-government/#egovwlan","ANBIETER":"https://digitales.wien.gv.at/site/e-government/#egovmultimediastationen","SE_ANNO_CAD_DATA":null}},{"type":"Feature","id":"WLANWIENATOGD.2027189","geometry":{"type":"Point","coordinates":[16.327467071910686,48.209513516505616]},"geometry_name":"SHAPE","properties":{"OBJECTID":2027189,"NAME":"Richard Wagner Platz","ADRESSE":"16., Richard Wagner Platz 19 ","WEITERE_INFORMATIONEN":"https://digitales.wien.gv.at/site/e-government/#egovwlan","ANBIETER":"https://digitales.wien.gv.at/site/e-government/#egovmultimediastationen","SE_ANNO_CAD_DATA":null}},{"type":"Feature","id":"WLANWIENATOGD.2027190","geometry":{"type":"Point","coordinates":[16.31701536585865,48.22135220878483]},"geometry_name":"SHAPE","properties":{"OBJECTID":2027190,"NAME":"Stoeberpark","ADRESSE":"16., Stoeberplatz geg 3 ","WEITERE_INFORMATIONEN":"https://digitales.wien.gv.at/site/e-government/#egovwlan","ANBIETER":"https://digitales.wien.gv.at/site/e-government/#egovmultimediastationen","SE_ANNO_CAD_DATA":null}},{"type":"Feature","id":"WLANWIENATOGD.2027191","geometry":{"type":"Point","coordinates":[16.318685472019066,48.21035085805331]},"geometry_name":"SHAPE","properties":{"OBJECTID":2027191,"NAME":"Schuhmeierplatz","ADRESSE":"16., Schuhmeierplatz geg 8 ","WEITERE_INFORMATIONEN":"https://digitales.wien.gv.at/site/e-government/#egovwlan","ANBIETER":"https://digitales.wien.gv.at/site/e-government/#egovmultimediastationen","SE_ANNO_CAD_DATA":null}},{"type":"Feature","id":"WLANWIENATOGD.2027192","geometry":{"type":"Point","coordinates":[16.304743681866476,48.21376843918606]},"geometry_name":"SHAPE","properties":{"OBJECTID":2027192,"NAME":"Karl Kantner Park","ADRESSE":"16., Thaliastrasse geg 157 ","WEITERE_INFORMATIONEN":"https://digitales.wien.gv.at/site/e-government/#egovwlan","ANBIETER":"https://digitales.wien.gv.at/site/e-government/#egovmultimediastationen","SE_ANNO_CAD_DATA":null}},{"type":"Feature","id":"WLANWIENATOGD.2027193","geometry":{"type":"Point","coordinates":[16.31202982728789,48.212519556372676]},"geometry_name":"SHAPE","properties":{"OBJECTID":2027193,"NAME":"U3 Ottakring","ADRESSE":"16., Paltaufgasse 16 ","WEITERE_INFORMATIONEN":"https://digitales.wien.gv.at/site/e-government/#egovwlan","ANBIETER":"https://digitales.wien.gv.at/site/e-government/#egovmultimediastationen","SE_ANNO_CAD_DATA":null}},{"type":"Feature","id":"WLANWIENATOGD.2027194","geometry":{"type":"Point","coordinates":[16.33377618495899,48.20586940607188]},